설치장소명,시도명,시군구명,소재지도로명주소,소재지지번주소,위도,경도,세부위치,관리기관명,관리기관전화번호,데이터기준일자,제공기관코드,제공기관명
더샵리비테르2차,대구광역시,중구,대구광역시 중구대봉로43길 22 (대봉동),대구광역시 중구 대봉동 760,35.85825722,128.6002328,,대구광역시 중구청,053-661-2726,2026-06-24,3410000,대구광역시 중구
동인시티타운,대구광역시,중구,대구광역시 중구 국채보상로131길 55 (동인동3가),대구광역시 중구 동인동1가 33-1,35.87279992,128.6020742,,대구광역시 중구청,053-661-2726,2026-06-24,3410000,대구광역시 중구
이편한세상대신,대구광역시,중구,대구광역시 중구 달구벌대로 1943 (삼덕동2가),대구광역시 중구 대신동 2110,35.86361997,128.576867,,대구광역시 중구청,053-661-2726,2026-06-24,3410000,대구광역시 중구
학마을서해아파트,인천광역시,계양구,인천광역시 계양구 장제로 878,인천광역시 계산동 병방동 432-5,37.544793,126.739483,관리사무실,인천광역시 계양구청,032-430-7815,2026-06-22,3550000,인천광역시 계양구
학마을영남아파트,인천광역시,계양구,인천광역시 계양구 장제로 878,인천광역시 계산동 병방동 432-5,37.544793,126.739483,관리사무실,인천광역시 계양구청,032-430-7815,2026-06-22,3550000,인천광역시 계양구
은행마을아주아파트,인천광역시,계양구,인천광역시 계양구 용종로 26,인천광역시 계양구 계산동 1085-2,37.536830,126.743251,관리사무실,인천광역시 계양구청,032-430-7815,2026-06-22,3550000,인천광역시 계양구
동보아파트,인천광역시,계양구,인천광역시 계양구 주부토로363번길 28,인천광역시 계양구 작전동 388-2,37.527196,126.726654,관리사무실,인천광역시 계양구청,032-430-7815,2026-06-22,3550000,인천광역시 계양구
계산현대아파트,인천광역시,계양구,인천광역시 계양구 계산로 171,인천광역시 계양구 계산동 66,37.537684,126.732877,관리사무실,인천광역시 계양구청,032-430-7815,2026-06-22,3550000,인천광역시 계양구
작전현대2-1차아파트,인천광역시,계양구,인천광역시 계양구 효서로 381,인천광역시 계양구 작전동 580,37.528007,126.737781,관리사무실,인천광역시 계양구청,032-430-7815,2026-06-22,3550000,인천광역시 계양구
계산주공아파트,인천광역시,계양구,인천광역시 계양구 경명대로1142번길 3,인천광역시 계양구 계산동 20,37.541244,126.734073,관리사무실,인천광역시 계양구청,032-430-7815,2026-06-22,3550000,인천광역시 계양구
청담약국,충청남도,금산군,충청남도 금산군 금산읍 인삼로 76,,36.1026457951,127.4898980122,,충청남도 금산군보건소,,2026-06-23,4550000,충청남도 금산군
남산보건진료소,충청남도,금산군,충청남도 금산군 금산읍 비단로 86,,36.0987609349,127.490199,,충청남도 금산군보건소,,2026-06-23,4550000,충청남도 금산군
추부보건진료소,충청남도,금산군,충청남도 금산군 추부면 군북로 1434,,36.22594519,127.506184,,충청남도 금산군보건소,,2026-06-23,4550000,충청남도 금산군
복수보건진료소,충청남도,금산군,충청남도 금산군 복수면 복수로 754,,36.20977864,127.378779,,충청남도 금산군보건소,,2026-06-23,4550000,충청남도 금산군
진산보건진료소,충청남도,금산군,충청남도 금산군 진산면 실학로 162-3,,36.17704003,127.351276,,충청남도 금산군보건소,,2026-06-23,4550000,충청남도 금산군
남이보건진료소,충청남도,금산군,충청남도 금산군 남이면 상역평길 15,,36.06107143,127.410081,,충청남도 금산군보건소,,2026-06-23,4550000,충청남도 금산군
남일보건진료소,충청남도,금산군,충청남도 금산군 남일면 음대3길 8,,36.02544158,127.507111,,충청남도 금산군보건소,,2026-06-23,4550000,충청남도 금산군
군북보건진료소,충청남도,금산군,충청남도 금산군 군북면 상곡길 46,,36.20723166,127.569860,,충청남도 금산군보건소,,2026-06-23,4550000,충청남도 금산군
부리보건진료소,충청남도,금산군,충청남도 금산군 부리면 신촌2길 2,,36.0840648,127.568498,,충청남도 금산군보건소,,2026-06-23,4550000,충청남도 금산군
금성보건진료소,충청남도,금산군,충청남도 금산군 금성면 돌고개2길 3,,36.14675418,127.462494,,충청남도 금산군보건소,,2026-06-23,4550000,충청남도 금산군
추부보건지소,충청남도,금산군,충청남도 금산군 추부면 하마전로 31,,36.19099364,127.469958,,충청남도 금산군보건소,,2026-06-23,4550000,충청남도 금산군
복수보건지소,충청남도,금산군,충청남도 금산군 복수면 복수로 152,,36.16685208,127.398412,,충청남도 금산군보건소,,2026-06-23,4550000,충청남도 금산군
진산보건지소,충청남도,금산군,충청남도 금산군 진산면 읍내로 69,,36.14420415,127.370055,,충청남도 금산군보건소,,2026-06-23,4550000,충청남도 금산군
남이보건지소,충청남도,금산군,충청남도 금산군 남이면 진악로 25,,36.04797059,127.436379,,충청남도 금산군보건소,,2026-06-23,4550000,충청남도 금산군
남일보건지소,충청남도,금산군,충청남도 금산군 남일면 봉황로 84,,36.04279425,127.504700,,충청남도 금산군보건소,,2026-06-23,4550000,충청남도 금산군
군북보건지소,충청남도,금산군,충청남도 금산군 군북면 군북로 699,,36.16627155,127.525705,,충청남도 금산군보건소,,2026-06-23,4550000,충청남도 금산군
부리보건지소,충청남도,금산군,충청남도 금산군 부리면 현내1길 37,,36.0607883,127.554896,,충청남도 금산군보건소,,2026-06-23,4550000,충청남도 금산군
제원보건지소,충청남도,금산군,충청남도 금산군 제원면 제원3길 3,,36.11253409,127.546095,,충청남도 금산군보건소,,2026-06-23,4550000,충청남도 금산군
금성보건지소,충청남도,금산군,충청남도 금산군 금성면 진산로 372,,36.13064844,127.4536009,,충청남도 금산군보건소,,2026-06-23,4550000,충청남도 금산군
금산군보건소,충청남도,금산군,충청남도 금산군 금산읍 금산로 1559,,36.11206663,127.491638,,충청남도 금산군보건소,,2026-06-23,4550000,충청남도 금산군
중구청,대구광역시,중구,대구광역시 중구 국채보상로139길 1 (동인동2가),대구광역시 중구 동인동2가 177-4,35.86932566,128.6061577,민원실,대구광역시 중구청,053-661-2726,2026-06-24,3410000,대구광역시 중구
작전서운동,인천광역시,계양구,인천광역시 계양구 효서로 361(작전동),인천광역시 계양구 작전동 918-2,37.528104,126.736423,,인천광역시 계양구청,032-430-7815,2026-06-22,3550000,인천광역시 계양구
작전2동,인천광역시,계양구,인천광역시 계양구 봉오대로 677번길 23(작전동),인천광역시 계양구 작전동 854-20,37.532914,126.723909,,인천광역시 계양구청,032-430-7815,2026-06-22,3550000,인천광역시 계양구
작전1동,인천광역시,계양구,인천광역시 계양구 봉오대로 727(작전동),인천광역시 계양구 작전동 231-1,37.530799,126.729697,,인천광역시 계양구청,032-430-7815,2026-06-22,3550000,인천광역시 계양구
계산4동,인천광역시,계양구,인천광역시 계양구 용종로 12-8(계산동),인천광역시 계양구 계산동 1086-1,37.534567,126.741704,,인천광역시 계양구청,032-430-7815,2026-06-22,3550000,인천광역시 계양구
계산3동,인천광역시,계양구,인천광역시 계양구 계산새로 7(계산동),인천광역시 계양구 계산동 480-7,37.537734,126.728979,,인천광역시 계양구청,032-430-7815,2026-06-22,3550000,인천광역시 계양구
계산2동,인천광역시,계양구,인천광역시 계양구 주부토로 559(계산동),인천광역시 계양구 계산2동 920 주민센터,37.544209,126.728142,,인천광역시 계양구청,032-430-7815,2026-06-22,3550000,인천광역시 계양구
계산1동,인천광역시,계양구,인천광역시 계양구 향교로 24(계산동),인천광역시 계양구 계산동 972-1,37.539605,126.721348,,인천광역시 계양구청,032-430-7815,2026-06-22,3550000,인천광역시 계양구
보건지소,인천광역시,계양구,인천광역시 계양구 장기서로 8(장기동),인천광역시 계양구 장기동 130,37.576843,126.734127,,인천광역시 계양구청,032-430-7815,2026-06-22,3550000,인천광역시 계양구
계양구보건소,인천광역시,계양구,인천광역시 계양구 계양문화로 63(계산동),인천광역시 계양구 계산동 1077-2,37.536455,126.736227,,인천광역시 계양구청,032-430-7815,2026-06-22,3550000,인천광역시 계양구
효성두산아파트,인천광역시,계양구,인천광역시 계양구 안남로573번길 18,인천광역시 계양구 효성동 33-2,37.537333,126.708905,관리사무실,인천광역시 계양구청,032-430-7815,2026-06-22,3550000,인천광역시 계양구
효성뉴서울2차아파트,인천광역시,계양구,인천광역시 계양구 안남로 558 효성뉴서울2차아파트 (효성동),인천광역시 계양구 효성동 25,37.533449,126.710935,관리사무실,인천광역시 계양구청,032-430-7815,2026-06-22,3550000,인천광역시 계양구
효성5차뉴서울아파트,인천광역시,계양구,인천광역시 계양구 아나지로 199 효성5차뉴서울아파트,인천광역시 계양구 효성동 238-1,37.526157,126.714963,관리사무실,인천광역시 계양구청,032-430-7815,2026-06-22,3550000,인천광역시 계양구
효성4차현대아파트,인천광역시,계양구,인천광역시 계양구 새벌로112번길 12,인천광역시 계양구 효성동 200-1,37.526361,126.717323,관리사무실,인천광역시 계양구청,032-430-7815,2026-06-22,3550000,인천광역시 계양구
효성3차뉴서울아파트,인천광역시,계양구,인천광역시 계양구 새벌로 88,인천광역시 계양구 효성동 207-1,37.524992,126.717177,관리사무실,인천광역시 계양구청,032-430-7815,2026-06-22,3550000,인천광역시 계양구
효성1차현대아파트,인천광역시,계양구,"인천광역시 계양구 길마로 70 (효성동, 현대 1차 아파트)",인천광역시 계양구 효성동 21-11,37.533184,126.712761,관리사무실,인천광역시 계양구청,032-430-7815,2026-06-22,3550000,인천광역시 계양구
한화꿈에그린아파트,인천광역시,계양구,인천광역시 계양구 동양로 10 한화꿈에그린아파트,인천광역시 계양구 박촌동 310,37.555321,126.746741,관리사무실,인천광역시 계양구청,032-430-7815,2026-06-22,3550000,인천광역시 계양구
태화한진아파트,인천광역시,계양구,인천광역시 계양구 효서로 393 태화한진아파트,인천광역시 계양구 작전동 915-1,37.528484,126.741429,관리사무실,인천광역시 계양구청,032-430-7815,2026-06-22,3550000,인천광역시 계양구
태산그린아파트,인천광역시,계양구,"인천광역시 계양구 봉오대로463번길 26, 태산아파트 (효성동)",인천광역시 계양구 효성동 123-57,37.530010,126.699333,관리사무실,인천광역시 계양구청,032-430-7815,2026-06-22,3550000,인천광역시 계양구
작전현대2-2차아파트,인천광역시,계양구,인천광역시 계양구 효서로 381 작전서운동 현대2-2차아파트,인천광역시 계양구 작전동 580,37.527868,126.739221,관리사무실,인천광역시 계양구청,032-430-7815,2026-06-22,3550000,인천광역시 계양구
작전현대1차아파트,인천광역시,계양구,인천광역시 계양구 봉오대로743번길 20,인천광역시 계양구 작전동 111-7,37.532129,126.732191,관리사무실,인천광역시 계양구청,032-430-7815,2026-06-22,3550000,인천광역시 계양구
작전동보2차아파트,인천광역시,계양구,인천광역시 계양구 장제로663번길 13,인천광역시 계양구 작전동 286-1,37.526051,126.731316,관리사무실,인천광역시 계양구청,032-430-7815,2026-06-22,3550000,인천광역시 계양구
오류신동아아파트,인천광역시,계양구,인천광역시 계양구 황어로115번길 10 신동아아파트,인천광역시 계양구 오류동 180,37.579662,126.732667,관리사무실,인천광역시 계양구청,032-430-7815,2026-06-22,3550000,인천광역시 계양구
동양주공2단지아파트,인천광역시,계양구,인천광역시 계양구 동양로 96 동양주공2단지아파트,인천광역시 계양구 동양동 581,37.558194,126.755661,관리사무실,인천광역시 계양구청,032-430-7815,2026-06-22,3550000,인천광역시 계양구
동양주공1단지아파트,인천광역시,계양구,인천광역시 계양구 양지로 7 동양주공1단지아파트,인천광역시 계양구 동양동 575,37.558997,126.755268,관리사무실,인천광역시 계양구청,032-430-7815,2026-06-22,3550000,인천광역시 계양구
뉴서울1차아파트,인천광역시,계양구,"인천광역시 계양구 봉오대로744번길 7 (작전동, 뉴서울1차아파트)",인천광역시 계양구 작전동 102-3,37.529376,126.732831,관리사무실,인천광역시 계양구청,032-430-7815,2026-06-22,3550000,인천광역시 계양구
e편한세상더프리미어아파트,인천광역시,계양구,인천광역시 계양구 효서로 145(효성동),인천광역시 계양구 효성동 254-14,37.528944,126.713306,관리사무실,인천광역시 계양구청,032-430-7815,2026-06-22,3550000,인천광역시 계양구
효성해링턴플레이스아파트,인천광역시,계양구,인천광역시 계양구 서운로 34,인천광역시 계양구 서운동 230,37.529014,126.745830,관리사무실,인천광역시 계양구청,032-430-7815,2026-06-22,3550000,인천광역시 계양구
계양센트레빌1단지아파트,인천광역시,계양구,인천광역시 계양구 형제봉길 100,인천광역시 계산동 귤현동 531,37.569353,126.751169,관리사무실,인천광역시 계양구청,032-430-7815,2026-06-22,3550000,인천광역시 계양구
학마을한진아파트,인천광역시,계양구,인천광역시 계양구 용종로 124,인천광역시 계산동 병방동 433-1,37.545194,126.743262,관리사무실,인천광역시 계양구청,032-430-7815,2026-06-22,3550000,인천광역시 계양구
반월동행정복지센터,경기도,안산시,경기도 안산시 상록구 건건로 51,,37.30603351,126.90216077,행정복지센터 1층,경기도 안산시청,,2026-06-17,3930000,경기도 안산시
안산동행정복지센터,경기도,안산시,경기도 안산시 상록구 장하로 315,,37.36187260,126.87335291,행정복지센터 1층 입구 앞,경기도 안산시청,,2026-06-17,3930000,경기도 안산시
원곡보건지소,경기도,안산시,경기도 안산시 단원구 부부로 43 3층,,37.33255462,126.79047892,원곡보건지소 출입구 앞,경기도 안산시청,,2026-06-17,3930000,경기도 안산시
대부보건지소,경기도,안산시,경기도 안산시 단원구 대부중앙로 77,,37.24431366,126.58314097,상동어울림센터 1층 대부보건지소 출입구 앞,경기도 안산시청,,2026-06-17,3930000,경기도 안산시
반월건강생활지원센터,경기도,안산시,경기도 안산시 상록구 건건로 119-4,,37.31219166,126.90451937,반월건강생활지원센터 1층 입구 앞,경기도 안산시청,,2026-06-17,3930000,경기도 안산시
단원보건소,경기도,안산시,경기도 안산시 단원구 화랑로 250,,37.32106420,126.81525869,단원보건소 입구 앞,경기도 안산시청,,2026-06-17,3930000,경기도 안산시
상록보건소,경기도,안산시,경기도 안산시 상록구 차돌배기로1길 5,,37.30026456,126.84506902,상록수보건소 1층 입구 앞,경기도 안산시청,,2026-06-17,3930000,경기도 안산시
터미널약국,전북특별자치도,장수군,전북특별자치도 장수군 장계면 한들로 90-1,전북특별자치도 장수군 장계면 장계리 296-6,35.73093747,127.5820676,,전북특별자치도 장수군,063-350-2538,2026-05-29,4751000,전북특별자치도 장수군
태평양약국,전북특별자치도,장수군,전북특별자치도 장수군 장수읍 장천로 175,전북특별자치도 장수군 장수읍 장수리 472-1,35.64827518,127.5182645,,전북특별자치도 장수군,063-350-2538,2026-05-29,4751000,전북특별자치도 장수군
장수종로약국,전북특별자치도,장수군,전북특별자치도 장수군 장수읍 장천로 189,전북특별자치도 장수군 장수읍 장수리 458-6,35.64911117,127.5187547,,전북특별자치도 장수군,063-350-2538,2026-05-29,4751000,전북특별자치도 장수군
장계백제약국,전북특별자치도,장수군,전북특별자치도 장수군 장계면 한들로 93,전북특별자치도 장수군 장계면 장계리 299-2,35.73147552,127.5822926,,전북특별자치도 장수군,063-350-2538,2026-05-29,4751000,전북특별자치도 장수군
독일약국,전북특별자치도,장수군,전북특별자치도 장수군 장계면 한들로 108,전북특별자치도 장수군 장계면 장계리 351-57,35.73107582,127.5839264,,전북특별자치도 장수군,063-350-2538,2026-05-29,4751000,전북특별자치도 장수군
유약국,전북특별자치도,장수군,전북특별자치도 장수군 장계면 한들로 107,전북특별자치도 장수군 장계면 장계리 350-9,35.73146504,127.5835996,,전북특별자치도 장수군,063-350-2538,2026-05-29,4751000,전북특별자치도 장수군
보건약국,전북특별자치도,장수군,전북특별자치도 장수군 산서면 비행로 24,전북특별자치도 장수군 산서면 동화리 155-3,35.58476649,127.3952692,,전북특별자치도 장수군,063-350-2538,2026-05-29,4751000,전북특별자치도 장수군
세계로 약국,전북특별자치도,장수군,전북특별자치도 장수읍 장천로 180,전북특별자치도 장수군 장수읍 장수리 475-2,35.64814501,127.5189191,,전북특별자치도 장수군,063-350-2538,2026-05-29,4751000,전북특별자치도 장수군
늘푸른 약국,전북특별자치도,장수군,전북특별자치도 장수군 장수읍 장천로 172,전북특별자치도 장수군 장수읍 장수리 508-5,35.64758189,127.5186496,,전북특별자치도 장수군,063-350-2538,2026-05-29,4751000,전북특별자치도 장수군
계북면사무소,전북특별자치도,장수군,전북특별자치도 장수군 계북면 장무로 961,전북특별자치도 장수군 계북면 어전리 860-1,35.78550612,127.6124813,,전북특별자치도 장수군,063-350-1511,2026-05-29,4751000,전북특별자치도 장수군
계남면사무소,전북특별자치도,장수군,전북특별자치도 장수군 계남면 장수로 3071,전북특별자치도 장수군 계남면 화음리 974-1,35.70294089,127.5777235,,전북특별자치도 장수군,063-350-1463,2026-05-29,4751000,전북특별자치도 장수군
천천면사무소,전북특별자치도,장수군,전북특별자치도 장수군 천천면 장천로 1186,전북특별자치도 장수군 천천면 봉덕리 15-2,35.73344704,127.5326261,,전북특별자치도 장수군,063-350-1411,2026-05-29,4751000,전북특별자치도 장수군
장계면사무소,전북특별자치도,장수군,전북특별자치도 장수군 장계면 한들로 153-3,전북특별자치도 장수군 장계면 장계리 684,35.73196891,127.5892619,,전북특별자치도 장수군,063-350-1361,2026-05-29,4751000,전북특별자치도 장수군
번암면사무소,전북특별자치도,장수군,전북특별자치도 장수군 번암면 장수로 485,전북특별자치도 장수군 번암면 노단리 1191-4,35.53198899,127.5438114,,전북특별자치도 장수군,063-350-1311,2026-05-29,4751000,전북특별자치도 장수군
산서면사무소,전북특별자치도,장수군,전북특별자치도 장수군 산서면 보산로 1858,전북특별자치도 장수군 산서면 동화리 122-2,35.58421357,127.3964147,,전북특별자치도 장수군,063-350-1261,2026-05-29,4751000,전북특별자치도 장수군
장수읍사무소,전북특별자치도,장수군,전북특별자치도 장수군 장수읍 장천로 245,전북특별자치도 장수군 장수읍 장수리 425,35.65389494,127.5198244,,전북특별자치도 장수군,063-350-1211,2026-05-29,4751000,전북특별자치도 장수군
장수군보건의료원,전북특별자치도,장수군,전북특별자치도 장수군 장수읍 장천로 245,전북특별자치도 장수군 장수읍 장수리 425,35.65389494,127.5198244,,전북특별자치도 장수군,063-350-2613,2026-05-29,4751000,전북특별자치도 장수군
계양구청1층,인천광역시,계양구,인천광역시 계양구 계산새로 88(계산동),인천광역시 계양구 계산동 1079-1 계양구청,37.537441,126.737760,,인천광역시 계양구청,032-430-7815,2026-06-22,3550000,인천광역시 계양구
계양3동,인천광역시,계양구,인천광역시 계양구 양지로 31(동양동),인천광역시 계양구 동양동 607-2,37.561578,126.754899,,인천광역시 계양구청,032-430-7815,2026-06-22,3550000,인천광역시 계양구
계양2동,인천광역시,계양구,인천광역시 계양구 장제로 853(임학동),인천광역시 계양구 임학동 69-23,37.543779,126.737031,,인천광역시 계양구청,032-430-7815,2026-06-22,3550000,인천광역시 계양구
계양1동,인천광역시,계양구,인천광역시 계양구 장기서로 8(장기동),인천광역시 계양구 장기동 130,37.576843,126.734127,,인천광역시 계양구청,032-430-7815,2026-06-22,3550000,인천광역시 계양구
효성2동,인천광역시,계양구,인천광역시 계양구 아나지로 162(효성동),인천광역시 계양구 효성2동 331-8,37.525051,126.709817,,인천광역시 계양구청,032-430-7815,2026-06-22,3550000,인천광역시 계양구
효성1동,인천광역시,계양구,인천광역시 계양구 봉오대로 569번길 22(효성동),인천광역시 계양구 효성동 23-28,37.532462,126.712134,,인천광역시 계양구청,032-430-7815,2026-06-22,3550000,인천광역시 계양구
푸른마을5단지,경기도,안산시,경기도 안산시 단원구 광덕4로 460,,37.30296278,126.85569852,관리소 실내,경기도 안산시청,,2026-06-17,3930000,경기도 안산시
월피주공3단지,경기도,안산시,경기도 안산시 상록구 안산천동로1길 10,,37.33054033,126.84413233,경로당 내부(2층),경기도 안산시청,,2026-06-17,3930000,경기도 안산시
그랑시티자이(1차),경기도,안산시,경기도 안산시 상록구 해양4로 31,,37.28076934,126.82894806,109동 커뮤니티센터 입구,경기도 안산시청,,2026-06-17,3930000,경기도 안산시
환경교통국,경기도,안산시,경기도 안산시 단원구 중앙대로 839,,37.31764806,126.82965166,청사 내 1층,경기도 안산시청,,2026-06-17,3930000,경기도 안산시
선부3동행정복지센터,경기도,안산시,경기도 안산시 단원구 선삼로 47,,37.34505037,126.81254614,행정복지센터 1층 입구 앞,경기도 안산시청,,2026-06-17,3930000,경기도 안산시
선부2동행정복지센터,경기도,안산시,경기도 안산시 단원구 지곡로 46,,37.33834873,126.80292381,행정복지센터 1층(계단),경기도 안산시청,,2026-06-17,3930000,경기도 안산시
초지동행정복지센터,경기도,안산시,경기도 안산시 단원구 초지동로 67,,37.30997912,126.81686513,행정복지센터 1층 입구(주민자치센터 쪽) 앞,경기도 안산시청,,2026-06-17,3930000,경기도 안산시
백운동행정복지센터,경기도,안산시,경기도 안산시 단원구 원선로 31,,37.32808018,126.79704988,행정복지센터 2층 민원실 내부,경기도 안산시청,,2026-06-17,3930000,경기도 안산시
원곡동행정복지센터,경기도,안산시,경기도 안산시 단원구 부부로 55,,37.33328851,126.79087340,행정복지센터 1층 입구 앞,경기도 안산시청,,2026-06-17,3930000,경기도 안산시
중앙동행정복지센터,경기도,안산시,경기도 안산시 단원구 예술대학로 76,,37.32385369,126.83761155,행정복지센터 2층 민원실 앞,경기도 안산시청,,2026-06-17,3930000,경기도 안산시
고잔동행정복지센터,경기도,안산시,경기도 안산시 단원구 화정천동로 252,,37.32713126,126.81915787,행정복지센터 2층 민원실 앞,경기도 안산시청,,2026-06-17,3930000,경기도 안산시
대부동행정복지센터,경기도,안산시,경기도 안산시 단원구 대부중앙로 97-9,,37.24376538,126.58551807,행정복지센터 1층 입구,경기도 안산시청,,2026-06-17,3930000,경기도 안산시
호수동행정복지센터,경기도,안산시,경기도 안산시 단원구 광덕2로 125,,37.31027925,126.82438478,행정복지센터 1층 엘리베이터 맞은편,경기도 안산시청,,2026-06-17,3930000,경기도 안산시
와동행정복지센터,경기도,안산시,경기도 안산시 단원구 선부로 273,,37.34177406,126.82555354,행정복지센터 1층 입구 앞,경기도 안산시청,,2026-06-17,3930000,경기도 안산시
신길동행정복지센터,경기도,안산시,경기도 안산시 단원구 삼일로 42-7,,37.33483169,126.78318650,행정복지센터 2층 입구 앞,경기도 안산시청,,2026-06-17,3930000,경기도 안산시
선부1동행정복지센터,경기도,안산시,경기도 안산시 단원구 선부광장서로 47,,37.33430896,126.80440969,행정복지센터 2층 입구 앞,경기도 안산시청,,2026-06-17,3930000,경기도 안산시
월피동행정복지센터,경기도,안산시,경기도 안산시 상록구 시낭북로 4,,37.33370020,126.85683536,행정복지센터 1층 입구 앞,경기도 안산시청,,2026-06-17,3930000,경기도 안산시
부곡동행정복지센터,경기도,안산시,경기도 안산시 상록구 성호로 326,,37.33166794,126.86100739,동 행정복지센터 주차장,경기도 안산시청,,2026-06-17,3930000,경기도 안산시
본오3동행정복지센터,경기도,안산시,경기도 안산시 상록구 용신로 376,,37.30145515,126.86383137,행정복지센터  출입구 옆,경기도 안산시청,,2026-06-17,3930000,경기도 안산시
본오2동행정복지센터,경기도,안산시,경기도 안산시 상록구 석호로 349,,37.29356962,126.86936348,행정복지센터 1층 입구 앞,경기도 안산시청,,2026-06-17,3930000,경기도 안산시
해양동행정복지센터,경기도,안산시,경기도 안산시 상록구 해양로 8,,37.29473775,126.82004731,행정복지센터 1층 입구 앞,경기도 안산시청,,2026-06-17,3930000,경기도 안산시
사동행정복지센터,경기도,안산시,경기도 안산시 상록구 석호로 171,,37.29710588,126.85104998,행정복지센터 1층 입구,경기도 안산시청,,2026-06-17,3930000,경기도 안산시
이동행정복지센터,경기도,안산시,경기도 안산시 상록구 이동로 46,,37.30544520,126.86083856,행정복지센터 1층 뒷문 앞,경기도 안산시청,,2026-06-17,3930000,경기도 안산시
사이동행정복지센터,경기도,안산시,경기도 안산시 상록구 감골1로 52,,37.28980625,126.85188265,행정복지센터 1층 입구 앞,경기도 안산시청,,2026-06-17,3930000,경기도 안산시
성포동행정복지센터,경기도,안산시,경기도 안산시 상록구 충장로 468,,37.32064499,126.84951878,행정복지센터 1층 입구 앞,경기도 안산시청,,2026-06-17,3930000,경기도 안산시
본오1동행정복지센터,경기도,안산시,경기도 안산시 상록구 샘골로 16,,37.28510465,126.86424611,행정복지센터 1층 입구 앞,경기도 안산시청,,2026-06-17,3930000,경기도 안산시
일동행정복지센터,경기도,안산시,경기도 안산시 상록구 성호로 53,,37.31032639,126.86620241,행정복지센터 1층 입구 앞,경기도 안산시청,,2026-06-17,3930000,경기도 안산시
대봉1동 행정복지센터,대구광역시,중구,대구광역시 중구 달구벌대로440길 27 (대봉동),대구광역시 중구 대봉동 19-17,35.86154465,128.6043921,민원실,대구광역시 중구청,053-661-2726,2026-06-24,3410000,대구광역시 중구
남산4동 행정복지센터,대구광역시,중구,대구광역시 중구 남산로1길 42 (남산동),대구광역시 중구 남산동 2508-1,35.85822406,128.5805717,민원실,대구광역시 중구청,053-661-2726,2026-06-24,3410000,대구광역시 중구
남산3동 행정복지센터,대구광역시,중구,대구광역시 중구 남산로4길 70 (남산동),대구광역시 중구 남산동 2208-15,35.85991044,128.5855578,민원실,대구광역시 중구청,053-661-2726,2026-06-24,3410000,대구광역시 중구
남산2동 행정복지센터,대구광역시,중구,대구광역시 중구 명륜로 27-1 (남산동),대구광역시 중구 남산동 573-1,35.86408873,128.5895641,민원실,대구광역시 중구청,053-661-2726,2026-06-24,3410000,대구광역시 중구
남산1동 행정복지센터,대구광역시,중구,대구광역시 중구 2·28길 18-15 (남산동),대구광역시 중구 남산동 599-14,35.85938208,128.590478,민원실,대구광역시 중구청,053-661-2726,2026-06-24,3410000,대구광역시 중구
대신동 행정복지센터,대구광역시,중구,대구광역시 중구 달구벌대로389길 50 (대신동),대구광역시 중구 대신동 2107,35.86555059,128.5763382,민원실,대구광역시 중구청,053-661-2726,2026-06-24,3410000,대구광역시 중구
성내3동 행정복지센터,대구광역시,중구,대구광역시 중구 달성로 111 (달성동),대구광역시 중구 달성동 358,35.87490401,128.5817585,민원실,대구광역시 중구청,053-661-2726,2026-06-24,3410000,대구광역시 중구
성내2동 행정복지센터,대구광역시,중구,대구광역시 중구 달구벌대로415길 48 (장관동),대구광역시 중구 장관동 34-2,35.86838053,128.590387,민원실,대구광역시 중구청,053-661-2726,2026-06-24,3410000,대구광역시 중구
성내1동 행정복지센터,대구광역시,중구,대구광역시 중구 동성로2길 7 (봉산동),대구광역시 중구 봉산동 2-2,35.86666094,128.595777,민원실,대구광역시 중구청,053-661-2726,2026-06-24,3410000,대구광역시 중구
삼덕동 행정복지센터,대구광역시,중구,대구광역시 중구 달구벌대로447길 72-11 (삼덕동3가),대구광역시 중구 삼덕동3가 174-2,35.86552462,128.6089401,민원실,대구광역시 중구청,053-661-2726,2026-06-24,3410000,대구광역시 중구
동인동 행정복지센터,대구광역시,중구,대구광역시 중구 국채보상로142길 19-5 (동인동4가),대구광역시 중구 동인동4가 318-5,35.86790437,128.6091274,민원실,대구광역시 중구청,053-661-2726,2026-06-24,3410000,대구광역시 중구
청라힐스자이,대구광역시,중구,대구광역시 중구 남산로 73 (남산동),대구광역시 중구 남산동 3049,35.86215394,128.5811563,,대구광역시 중구청,053-661-2726,2026-06-24,3410000,대구광역시 중구
힐스테이트 대구역,대구광역시,중구,대구광역시 중구 태평로28길 13 (태평로2가),대구광역시 중구 태평로2가 41,35.87484197,128.5927235,,대구광역시 중구청,053-661-2726,2026-06-24,3410000,대구광역시 중구
청라힐제웰더센트로,대구광역시,중구,대구광역시 중구 달성로 71 (대신동),대구광역시 중구 대신동 103-9,35.87127818,128.581890,,대구광역시 중구청,053-661-2726,2026-06-24,3410000,대구광역시 중구
청운맨션,대구광역시,중구,대구광역시 중구 동덕로 33 (대봉동),대구광역시 중구 대봉동 111-1,35.85760652,128.6038957,,대구광역시 중구청,053-661-2726,2026-06-24,3410000,대구광역시 중구
남산초등학교,대구광역시,중구,대구광역시 중구 남산로 70 (남산동),대구광역시 중구 남산동 122,35.86322075,128.5827674,보건실 앞,대구광역시 중구청,053-661-2726,2026-06-24,3410000,대구광역시 중구
원만사 유치원,대구광역시,중구,대구광역시 중구 달구벌대로 2013 (동산동),대구광역시 중구 동산동 708,35.86584738,128.583870,,대구광역시 중구청,053-661-2726,2026-06-24,3410000,대구광역시 중구
엑소디움센트럴동인,대구광역시,중구,대구광역시 중구 국채보상로139길 40 (동인동3가),대구광역시 중구 동인동3가 88,35.87022385,128.6076109,,대구광역시 중구청,053-661-2726,2026-06-24,3410000,대구광역시 중구
대구동덕초등학교,대구광역시,중구,대구광역시 중구 동덕로26길 20 (삼덕동2가),대구광역시 중구 삼덕동2가 227,35.86470834,128.6046712,보건실 앞,대구광역시 중구청,053-661-2726,2026-06-24,3410000,대구광역시 중구
대구삼덕초등학교 병설유치원,대구광역시,중구,대구광역시 중구 달구벌대로447길 10 (삼덕동3가),대구광역시 중구 삼덕동3가 316,35.86355822,128.6078444,,대구광역시 중구청,053-661-2726,2026-06-24,3410000,대구광역시 중구
더샵 리비테르1차,대구광역시,중구,대구광역시 중구 대봉로43길 21 (대봉동),대구광역시 중구 대봉동 770,35.85668227,128.6007815,,대구광역시 중구청,053-661-2726,2026-06-24,3410000,대구광역시 중구
동산맨션,대구광역시,중구,대구광역시 중구 달구벌대로 2035,대구광역시 중구 동산동 357,35.8670786,128.5860498,,대구광역시 중구청,053-661-2726,2026-06-24,3410000,대구광역시 중구
달성파크어린이집,대구광역시,중구,대구광역시 중구 달성로 123 (달성동),대구광역시 중구 달성동 352,35.87679712,128.5803924,,대구광역시 중구청,053-661-2726,2026-06-24,3410000,대구광역시 중구
중구청 민원실,대구광역시,중구,대구광역시 중구 국채보상로139길 1 (동인동2가),대구광역시 중구 동인동2가 177-4,35.86932566,128.6061577,민원실,대구광역시 중구청,053-661-2726,2026-06-24,3410000,대구광역시 중구
보성황실타운,대구광역시,중구,대구광역시 중구 남산로13길 17 (남산동),대구광역시 중구 남산동 2466-1,35.86092296,128.5804923,,대구광역시 중구청,053-661-2726,2026-06-24,3410000,대구광역시 중구
남산역 화성파크드림,대구광역시,중구,대구광역시 중구 남산로7길 7 (남산동),대구광역시 중구 남산동 3012,35.85868965,128.5823261,,대구광역시 중구청,053-661-2726,2026-06-24,3410000,대구광역시 중구
보성송림맨션,대구광역시,중구,대구광역시 중구 남산로4길 91 (남산동),대구광역시 중구 남산동 2434,35.86129574,128.5843589,,대구광역시 중구청,053-661-2726,2026-06-24,3410000,대구광역시 중구
남산롯데캐슬센트럴스카이,대구광역시,중구,대구광역시 중구 재마루길 77 (남산동),대구광역시 중구 남산동 3020,35.86365945,128.5852408,,대구광역시 중구청,053-661-2726,2026-06-24,3410000,대구광역시 중구
대신 e편한세상,대구광역시,중구,대구광역시 중구 달구벌대로 1943 (대신동),대구광역시 중구 대신동 2110,35.86361997,128.576867,,대구광역시 중구청,053-661-2726,2026-06-24,3410000,대구광역시 중구
극동스타클래스 남산,대구광역시,중구,대구광역시 중구 남산로 30 (남산동),대구광역시 중구 남산동 3000,35.85926026,128.5833652,,대구광역시 중구청,053-661-2726,2026-06-24,3410000,대구광역시 중구
청라언덕역 서한포레스트,대구광역시,중구,대구광역시 중구 달구벌대로 2021 (동산동),대구광역시 중구 동산동 916,35.8664188,128.584172,,대구광역시 중구청,053-661-2726,2026-06-24,3410000,대구광역시 중구
대봉 화성파크드림,대구광역시,중구,대구광역시 중구 명덕로55길 25 (대봉동),대구광역시 중구 대봉동 152-24,35.85679019,128.5989266,,대구광역시 중구청,053-661-2726,2026-06-24,3410000,대구광역시 중구
대구역 센트럴자이,대구광역시,중구,대구광역시 중구 서성로 99 (수창동),대구광역시 중구 수창동 173,35.87539377,128.5873488,,대구광역시 중구청,053-661-2726,2026-06-24,3410000,대구광역시 중구
남산그린타운,대구광역시,중구,대구광역시 중구 달구벌대로 1950 (남산동),대구광역시 중구 남산동 2937-1,35.86287963,128.576747,,대구광역시 중구청,053-661-2726,2026-06-24,3410000,대구광역시 중구
청라센트럴파크,대구광역시,중구,대구광역시 중구 달구벌대로 1970 (남산동),대구광역시 중구 남산동 2991,35.86386055,128.5808385,,대구광역시 중구청,053-661-2726,2026-06-24,3410000,대구광역시 중구
반월당역 삼정그린코아,대구광역시,중구,대구광역시 중구 중앙대로67길 10 (남산동),대구광역시 중구 남산동 665,35.86354846,128.5921861,,대구광역시 중구청,053-661-2726,2026-06-24,3410000,대구광역시 중구
센트로팰리스,대구광역시,중구,대구광역시 중구 대봉로 260 (대봉동),대구광역시 중구 대봉동 60-10,35.86152733,128.6007459,,대구광역시 중구청,053-661-2726,2026-06-24,3410000,대구광역시 중구
반월당역 서한포레스트,대구광역시,중구,대구광역시 중구 중앙대로67길 11 (남산동),대구광역시 중구 남산동 3043,35.86254819,128.5918605,,대구광역시 중구청,053-661-2726,2026-06-24,3410000,대구광역시 중구
동인삼정그린코아,대구광역시,중구,대구광역시 중구 동덕로30길 63-11 (동인동4가),대구광역시 중구 동인동4가 220,35.86720021,128.6073853,,대구광역시 중구청,053-661-2726,2026-06-24,3410000,대구광역시 중구
중구 보건소,대구광역시,중구,대구광역시 중구 태평로 45 (태평로3가),대구광역시 중구 태평로3가 174-1,35.87790606,128.5833355,민원실,대구광역시 중구청,053-661-2726,2026-06-24,3410000,대구광역시 중구
대봉2동 행정복지센터,대구광역시,중구,대구광역시 중구 대봉로47길 31 (대봉동),대구광역시 중구 대봉동 759,35.85873266,128.5993941,민원실,대구광역시 중구청,053-661-2726,2026-06-24,3410000,대구광역시 중구
대봉서한이다음,대구광역시,중구,"대구광역시 중구 명덕로 241 (대봉동, 대봉 서한이다음)",대구광역시 중구 대봉동 783 대봉 서한이다음,35.85649035,128.5966569,,대구광역시 중구청,053-661-2726,2026-06-24,3410000,대구광역시 중구
남산휴먼시아1단지,대구광역시,중구,대구광역시 중구 달구벌대로 1960 (삼덕동1가),대구광역시 중구 남산동 2990,35.86317296,128.5781742,,대구광역시 중구청,053-661-2726,2026-06-24,3410000,대구광역시 중구
성명여자중학교,대구광역시,중구,대구광역시 중구 국채보상로102길 48 (동인동2가),대구광역시 중구 동산동 206,35.86838328,128.584035,보건실 앞,대구광역시 중구청,053-661-2726,2026-06-24,3410000,대구광역시 중구
종로초등학교,대구광역시,중구,대구광역시 중구 경상감영길 49 (서문로1가),대구광역시 중구 서문로1가 1-5,35.87249671,128.5897043,보건실 앞,대구광역시 중구청,053-661-2726,2026-06-24,3410000,대구광역시 중구
수창초등학교,대구광역시,중구,대구광역시 중구 달성로22길 30 (수창동),대구광역시 중구 수창동 73,35.8742603,128.5834453,보건실 앞,대구광역시 중구청,053-661-2726,2026-06-24,3410000,대구광역시 중구
대구초등학교,대구광역시,중구,대구광역시 중구 명륜로23길 80 (봉산동),대구광역시 중구 봉산동 57,35.86403787,128.5953715,보건실 앞,대구광역시 중구청,053-661-2726,2026-06-24,3410000,대구광역시 중구
더샵리비테르1차,대구광역시,중구,대구광역시 중구 대봉로43길 21 (대봉동),대구광역시 중구 대봉동 770,35.85668227,128.6007815,,대구광역시 중구청,053-661-2726,2026-06-24,3410000,대구광역시 중구
대구역제일풍경채위너스카이,대구광역시,중구,대구광역시 중구 달성로26길 70 (수창동),대구광역시 중구 수창동 178,35.8749262,128.5860174,,대구광역시 중구청,053-661-2726,2026-06-24,3410000,대구광역시 중구
삼덕초등학교,대구광역시,중구,대구광역시 중구 달구벌대로447길 10 (삼덕동3가),대구광역시 중구 삼덕동3가 316,35.86355822,128.6078444,보건실 앞,대구광역시 중구청,053-661-2726,2026-06-24,3410000,대구광역시 중구
명덕초등학교,대구광역시,중구,대구광역시 중구 남산로2길 125 (남산동),대구광역시 중구 남산동 2113,35.85754073,128.5890267,보건실 앞,대구광역시 중구청,053-661-2726,2026-06-24,3410000,대구광역시 중구
계성초등학교,대구광역시,중구,대구광역시 중구 달성로 15 (대신동),대구광역시 중구 대신동 280-2,35.86566471,128.5811278,보건실 앞,대구광역시 중구청,053-661-2726,2026-06-24,3410000,대구광역시 중구
동인초등학교,대구광역시,중구,대구광역시 중구 국채보상로 728 (동인동4가),대구광역시 중구 동인동4가 388,35.86808439,128.6095062,보건실 앞,대구광역시 중구청,053-661-2726,2026-06-24,3410000,대구광역시 중구
달성파크푸르지오 힐스테이트,대구광역시,중구,대구광역시 중구 달성로123 (달성동),대구광역시 중구 달성동 352,35.87679712,128.5803924,,대구광역시 중구청,053-661-2726,2026-06-24,3410000,대구광역시 중구
남산자이하늘채,대구광역시,중구,대구광역시 중구 명덕로 33 (남산동),대구광역시 중구 남산동 3030,35.86082902,128.5758694,,대구광역시 중구청,053-661-2726,2026-06-24,3410000,대구광역시 중구
한양아파트,경기도,안산시,경기도 안산시 상록구 안산천동로1길 9,,37.33235680,126.84930655,통합경비실 앞,경기도 안산시청,,2026-06-17,3930000,경기도 안산시
선경아파트,경기도,안산시,경기도 안산시 상록구 예술광장1로 131,,37.32478245,126.84227973,경로당 입구,경기도 안산시청,,2026-06-17,3930000,경기도 안산시
예술인아파트,경기도,안산시,경기도 안산시 상록구 화랑로 495,,37.32269529,126.84354154,관리동 건물내,경기도 안산시청,,2026-06-17,3930000,경기도 안산시
월피주공11단지,경기도,안산시,경기도 안산시 상록구 충장로 533,,37.32488709,126.84839357,관리사무소 앞,경기도 안산시청,,2026-06-17,3930000,경기도 안산시
수정한양아파트,경기도,안산시,경기도 안산시 단원구 선부광장북로 67,,37.33811688,126.81571343,관리사무소 1층 내부,경기도 안산시청,,2026-06-17,3930000,경기도 안산시
푸르지오6차,경기도,안산시,경기도 안산시 상록구 해양1로 11,,37.29492102,126.82579653,관리사무소 앞,경기도 안산시청,,2026-06-17,3930000,경기도 안산시
푸르지오브리파크,경기도,안산시,경기도 안산시 단원구 라성로 15,,37.32717690,126.79771870,관리사무소 옆(내부),경기도 안산시청,,2026-06-17,3930000,경기도 안산시
안산중흥S클래스,경기도,안산시,경기도 안산시 단원구 선이로 17,,37.34250035,126.80180842,관리사무소 건물내부,경기도 안산시청,,2026-06-17,3930000,경기도 안산시
신길아이파크,경기도,안산시,경기도 안산시 단원구 도일로 46,,37.33478556,126.78571498,102동 재활용수거장내,경기도 안산시청,,2026-06-17,3930000,경기도 안산시
안산팔곡마을주공아파트,경기도,안산시,경기도 안산시 상록구 정동1길 7,,37.29785234,126.88677077,108동 앞 분리수거장,경기도 안산시청,,2026-06-17,3930000,경기도 안산시
주공그린빌17단지,경기도,안산시,경기도 안산시 단원구 초지2로 11,,37.30836294,126.81113732,관리사무소 1층 내부,경기도 안산시청,,2026-06-17,3930000,경기도 안산시
안산천년가리더스카이,경기도,안산시,경기도 안산시 단원구 와동로 125,,37.34093301,126.82433650,지상 101~102동 통행로,경기도 안산시청,,2026-06-17,3930000,경기도 안산시
공작한양아파트,경기도,안산시,경기도 안산시 단원구 선부로 166,,37.34075811,126.81402433,관리사무소 1층 입구,경기도 안산시청,,2026-06-17,3930000,경기도 안산시
안산스마트허브 경기행복주택,경기도,안산시,경기도 안산시 단원구 산단로 104,,37.30483511,126.78844094,관리사무소 앞,경기도 안산시청,,2026-06-17,3930000,경기도 안산시
호수공원아파트,경기도,안산시,경기도 안산시 단원구 광덕서로 19,,37.30690098,126.82264374,관리소 앞,경기도 안산시청,,2026-06-17,3930000,경기도 안산시
양지마을아파트,경기도,안산시,경기도 안산시 단원구 한양대학로 130,,37.30483997,126.83657290,관리동 1층,경기도 안산시청,,2026-06-17,3930000,경기도 안산시
보네르빌리지,경기도,안산시,경기도 안산시 단원구 안산천남로211,,37.30837043,126.84007196,"105동 3,4라인 피로티",경기도 안산시청,,2026-06-17,3930000,경기도 안산시
네오빌 6단지,경기도,안산시,경기도 안산시 단원구 광덕동로 78,,37.30982722,126.83334879,616동 옆 관리용품 보관소 앞,경기도 안산시청,,2026-06-17,3930000,경기도 안산시
그린빌7단지,경기도,안산시,경기도 안산시 단원구 광덕2로 216,,37.30843867,126.83325741,정문초소 옆,경기도 안산시청,,2026-06-17,3930000,경기도 안산시
고잔5차 푸르지오,경기도,안산시,경기도 안산시 단원구 광덕2로 121,,37.31098258,126.82352777,관리사무소 내부,경기도 안산시청,,2026-06-17,3930000,경기도 안산시
고잔3차 푸르지오,경기도,안산시,경기도 안산시 단원구 광덕3로 201,,37.31301423,126.83581533,관리사무소 내부(입구 오른쪽),경기도 안산시청,,2026-06-17,3930000,경기도 안산시
주공그린빌14단지,경기도,안산시,경기도 안산시 단원구 광덕2로 32,,37.31049022,126.81301034,관리사무소 1층 내부,경기도 안산시청,,2026-06-17,3930000,경기도 안산시
휴먼시아7단지,경기도,안산시,경기도 안산시 단원구 신길로 50,,37.33448098,126.78940989,관리사무소앞,경기도 안산시청,,2026-06-17,3930000,경기도 안산시
휴먼시아2단지,경기도,안산시,경기도 안산시 단원구 삼일로 13,,37.33468572,126.77776101,관리사무소앞(옆),경기도 안산시청,,2026-06-17,3930000,경기도 안산시
군자주공12단지,경기도,안산시,경기도 안산시 단원구 선부광장남로 113,,37.33128268,126.81439881,관리사무소 내부,경기도 안산시청,,2026-06-17,3930000,경기도 안산시
초지역메이저타운 푸르지오파크,경기도,안산시,경기도 안산시 단원구 원초로 90,,37.32536128,126.80707874,관리사무소내,경기도 안산시청,,2026-06-17,3930000,경기도 안산시
롯데캐슬골드파크,경기도,안산시,경기도 안산시 단원구 적금로 164,,37.32238719,126.82687041,관리사무소 앞,경기도 안산시청,,2026-06-17,3930000,경기도 안산시
주공아파트 1단지,경기도,안산시,경기도 안산시 상록구 충장로 565,,37.32804716,126.84904498,주공아파트 관리동,경기도 안산시청,,2026-06-17,3930000,경기도 안산시
성포주공 4단지,경기도,안산시,경기도 안산시 상록구 화랑로 510,,37.32015631,126.84374963,성포주공4단지 관리동,경기도 안산시청,,2026-06-17,3930000,경기도 안산시
성포주공 10단지,경기도,안산시,경기도 안산시 상록구 화랑로527,,37.32184349,126.84767274,성포주공10단지 관리동,경기도 안산시청,,2026-06-17,3930000,경기도 안산시
그린빌10단지,경기도,안산시,경기도 안산시 상록구 안산천남1로 100,,37.31094799,126.84381154,탁구장 내부,경기도 안산시청,,2026-06-17,3930000,경기도 안산시
그랑시티자이(2차),경기도,안산시,경기도 안산시 상록구 해양5로 17,,37.28047394,126.83005772,209동 자이안센터 입구,경기도 안산시청,,2026-06-17,3930000,경기도 안산시
안산현대2차아파트,경기도,안산시,경기도 안산시 상록구 안산천동로1길 29,,37.33008963,126.84966832,관리사무소 앞 폐형광등 수거앞 옆,경기도 안산시청,,2026-06-17,3930000,경기도 안산시
안산센트럴푸르지오,경기도,안산시,경기도 안산시 단원구 고잔로 115,,37.32025859,126.83854688,105동 재활용장,경기도 안산시청,,2026-06-17,3930000,경기도 안산시
에버그린우성아파트,경기도,안산시,경기도 안산시 상록구 본오로 145,,37.29743082,126.86513252,관리사무소 건물내(단지 안),경기도 안산시청,,2026-06-17,3930000,경기도 안산시
푸르지오2차,경기도,안산시,경기도 안산시 상록구 안산천남1로 70,,37.30812168,126.84320050,관리사무소 입구(노인정),경기도 안산시청,,2026-06-17,3930000,경기도 안산시
고덕1동 주민센터,서울특별시,강동구,서울특별시 강동구 양재대로156길 123,서울특별시 강동구 고덕동 691-6,37.55727133,127.1515218,실내,서울특별시 고덕1동 주민센터,02-3425-7542,2026-04-15,3240000,서울특별시 강동구
고덕2동 주민센터,서울특별시,강동구,서울특별시 강동구 아리수로78길 43-12,서울특별시 강동구 고덕동 226-4,37.56050657,127.1643563,실내,서울특별시 고덕2동 주민센터,02-3425-7562,2026-04-15,3240000,서울특별시 강동구
길동 주민센터,서울특별시,강동구,서울특별시 강동구 천호대로 1183,서울특별시 강동구 길동 228-10,37.53456231,127.1426858,실내,서울특별시 길동 주민센터,02-3425-7877,2026-04-15,3240000,서울특별시 강동구
둔촌2동 주민센터,서울특별시,강동구,서울특별시 강동구 천호대로186길 7,서울특별시 강동구 둔촌동 65,37.53334613,127.1419485,실외,서울특별시 둔촌2동 주민센터,02-3425-7919,2026-04-15,3240000,서울특별시 강동구
명일1동 주민센터,서울특별시,강동구,서울특별시 강동구 양재대로 1634,서울특별시 강동구 명일동 312-99,37.55126175,127.1443451,실외,서울특별시 명일1동 주민센터,02-3425-7463,2026-04-15,3240000,서울특별시 강동구
명일2동 주민센터,서울특별시,강동구,서울특별시 강동구 상암로 260,서울특별시 강동구 명일동 223-7,37.5463638,127.1513524,실외,서울특별시 명일2동 주민센터,02-3425-7495,2026-04-15,3240000,서울특별시 강동구
상일1동 주민센터,서울특별시,강동구,서울특별시 강동구 구천면로 633,서울특별시 강동구 상일동 513-2,37.55058303,127.1683006,실내,서울특별시 상일1동 주민센터,02-3425-7435,2026-04-15,3240000,서울특별시 강동구
상일2동 주민센터,서울특별시,강동구,서울특별시 강동구 고덕로 98길 71,서울특별시 강동구 상일동 산77-27,37.55516429,127.1797587,실내,서울특별시 상일2동 주민센터,02-3425-7780,2026-04-15,3240000,서울특별시 강동구
성내1동 주민센터,서울특별시,강동구,서울특별시 강동구 성내로 13,서울특별시 강동구 성내동 539-1,37.53047772,127.122458,실내,서울특별시 성내1동 주민센터,02-3425-7763,2026-04-15,3240000,서울특별시 강동구
성내2동 주민센터,서울특별시,강동구,"서울특별시 강동구 천호대로 1050, 2층",서울특별시 강동구 성내동 611,37.536018,127.128155,실내,서울특별시 성내2동 주민센터,02-3425-7799,2026-04-15,3240000,서울특별시 강동구
성내3동 주민센터,서울특별시,강동구,서울특별시 강동구 강동대로53길 76,서울특별시 강동구 성내동 430-29,37.52604217,127.1328839,실외,서울특별시 성내3동 주민센터,02-3425-7825,2026-04-15,3240000,서울특별시 강동구
암사1동 주민센터,서울특별시,강동구,서울특별시 강동구 올림픽로98가길 57,서울특별시 강동구 암사동 493-13,37.5514791,127.1326396,실외,서울특별시 암사1동 주민센터,02-3425-7584,2026-04-15,3240000,서울특별시 강동구
암사2동 주민센터,서울특별시,강동구,서울특별시 강동구 상암로3길 28,서울특별시 강동구 암사동 503-8,37.5517063,127.1272709,실내,서울특별시 암사2동 주민센터,02-3425-7633,2026-04-15,3240000,서울특별시 강동구
암사3동 주민센터,서울특별시,강동구,서울특별시 강동구 고덕로 137,서울특별시 강동구 암사동 414-19,37.55499636,127.1407841,실내,서울특별시 암사3동 주민센터,02-3425-7640,2026-04-15,3240000,서울특별시 강동구
천호1동 주민센터,서울특별시,강동구,서울특별시 강동구 구천면로42길 59,서울특별시 강동구 천호동 76-2,37.54500381,127.1368198,실내,서울특별시 천호1동 주민센터,02-3425-7674,2026-04-15,3240000,서울특별시 강동구
천호2동 주민센터,서울특별시,강동구,서울특별시 강동구 올림픽로80길 60,서울특별시 강동구 천호동 422-12,37.54240857,127.1283202,실내,서울특별시 천호2동 주민센터,02-3425-7703,2026-04-15,3240000,서울특별시 강동구
천호3동 주민센터,서울특별시,강동구,서울특별시 강동구 진황도로 23길 7,서울특별시 강동구 천호동 555,37.53992761,127.1297726,실내,서울특별시 천호3동 주민센터,02-3425-7734,2026-04-15,3240000,서울특별시 강동구
강동보건소,서울특별시,강동구,서울특별시 강동구 성내로 45,서울특별시 강동구 성내동 541-2,37.529254,127.125563,실내,강동보건소,02-3425-6604,2026-04-15,3240000,서울특별시 강동구
국민건강보험공단 강동지사,서울특별시,강동구,서울특별시 강동구 천호대로 1102,서울특별시 강동구 성내동 199-1,37.535058,127.133583,보건소 입구,국민건강보험공단 강동지사,02-2225-9215,2026-04-15,3240000,서울특별시 강동구
둔촌1동 주민센터,서울특별시,강동구,서울특별시 강동구 양재대로84길 31,서울특별시 강동구 둔촌동 172-5,37.52348222,127.136692,실내,서울특별시 둔촌1동 주민센터,02-3425-7885,2026-04-15,3240000,서울특별시 강동구
푸르지오1차아파트,경기도,안산시,경기도 안산시 단원구 광덕동로 26,,37.30705020,126.83500474,푸르지오1차아파트 관리사무소,경기도 안산시청,,2026-06-17,3930000,경기도 안산시
그린빌주공8단지아파트,경기도,안산시,경기도 안산시 단원구 광덕2로 245,,37.30952053,126.83789968,그린빌주공8단지아파트 관리동,경기도 안산시청,,2026-06-17,3930000,경기도 안산시
고잔4차푸르지오,경기도,안산시,경기도 안산시 단원구 적금로 76,,37.31450430,126.82701534,고잔4차푸르지오 관리동,경기도 안산시청,,2026-06-17,3930000,경기도 안산시
안산레이크타운 푸르지오,경기도,안산시,경기도 안산시 단원구 광덕동로 25,,37.30689431,126.83198400,uz 센터 1층,경기도 안산시청,,2026-06-17,3930000,경기도 안산시
단원마을 아파트,경기도,안산시,경기도 안산시 단원구 광덕서로 45,,37.30886124,126.82677578,단원마을 아파트 관리소 앞,경기도 안산시청,,2026-06-17,3930000,경기도 안산시
한화꿈에그린아파트,경기도,안산시,경기도 안산시 단원구 원선1로 37,,37.32623172,126.80225832,102동 6라인 분리수거장앞,경기도 안산시청,,2026-06-17,3930000,경기도 안산시
경남아너스빌,경기도,안산시,경기도 안산시 단원구 원선1로 61,,37.32865212,126.80280669,관리사무소 입구,경기도 안산시청,,2026-06-17,3930000,경기도 안산시
군자산호한양아파트,경기도,안산시,경기도 안산시 단원구 달미로10,,37.33635475,126.81430790,통합경비실 형광등 수거함 옆,경기도 안산시청,,2026-06-17,3930000,경기도 안산시
포레나안산고잔,경기도,안산시,경기도 안산시 단원구 예술대학로1길7,,37.32943417,126.83607007,102동 분리수거장 내,경기도 안산시청,,2026-06-17,3930000,경기도 안산시
강일동 주민센터,서울특별시,강동구,서울특별시 강동구 아리수로93길 9-14,서울특별시 강동구 강일동 678,37.56504103,127.1739072,실내,서울특별시 강일동 주민센터,02-3425-7428,2026-04-15,3240000,서울특별시 강동구
중구 노인복지관,대구광역시,중구,대구광역시 중구 태평로 45 (태평로3가),대구광역시 중구 태평로3가 174-1,35.87790606,128.5833355,,대구광역시 중구청,053-661-2726,2026-06-24,3410000,대구광역시 중구
해링턴플레이스더반월당,대구광역시,중구,"대구광역시 중구 중앙대로61길 30 (남산동, 해링턴플레이스 더 반월당)",대구광역시 중구 남산동 3060 해링턴플레이스 더 반월당,35.86053306,128.5904464,,대구광역시 중구청,053-661-2726,2026-06-24,3410000,대구광역시 중구
태왕아너스스카이,대구광역시,중구,대구광역시 중구 달구벌대로 1975 (삼덕동2가),대구광역시 중구 대신동 305-1,35.86541167,128.5792375,,대구광역시 중구청,053-661-2726,2026-06-24,3410000,대구광역시 중구
오룡약국,전라남도,무안군,"전라남도 무안군 일로읍 오룡번영3로 40, 위드유타워 108호,109호","전라남도 무안군 일로읍 오룡리 122, 위드유타워108호 109호",34.80354332,126.4834037,,무안군보건소,061-450-5038,2026-03-30,5880000,전남광주통합특별시 무안군
바디엔약국,전라남도,무안군,"전라남도 무안군 삼향읍 남악3로 56, 연세메디타워 104호",전라남도 무안군 삼향읍 남악리 2149,34.81049264,126.4606981,,무안군보건소,061-450-5038,2026-03-30,5880000,전남광주통합특별시 무안군
성내보건진료소,전라남도,무안군,전라남도 무안군 운남면 향장길 3,전라남도 무안군 운남면 성내리 652-1,34.93247419,126.332735,,무안군보건소,061-450-5038,2026-03-30,5880000,전남광주통합특별시 무안군
학송보건진료소,전라남도,무안군,전라남도 무안군 해제면 봉대로 414,전라남도 무안군 해제면 학송리 169,35.12628797,126.2676823,,무안군보건소,061-450-5038,2026-03-30,5880000,전남광주통합특별시 무안군
천장보건진료소,전라남도,무안군,전라남도 무안군 해제면 창매로 23,전라남도 무안군 해제면 천장리 616-4,35.0796873,126.2954522,,무안군보건소,061-450-5038,2026-03-30,5880000,전남광주통합특별시 무안군
만풍보건진료소,전라남도,무안군,전라남도 무안군 해제면 진목길 2,전라남도 무안군 해제면 만풍리 373,35.12629653,126.3284719,,무안군보건소,061-450-5038,2026-03-30,5880000,전남광주통합특별시 무안군
송현보건진료소,전라남도,무안군,전라남도 무안군 망운면 서은길2,전라남도 무안군 망운면 송현리 585,34.99783397,126.3595773,,무안군보건소,061-450-5038,2026-03-30,5880000,전남광주통합특별시 무안군
해운보건진료소,전라남도,무안군,전라남도 무안군 현경면 장군로 687,전라남도 무안군 현경면 해운리 421-21,35.05762995,126.4646879,,무안군보건소,061-450-5038,2026-03-30,5880000,전남광주통합특별시 무안군
도대보건진료소,전라남도,무안군,전라남도 무안군 청계면 청운로 402,전라남도 무안군 청계면 도대리 249,34.94975252,126.4045177,,무안군보건소,061-450-5038,2026-03-30,5880000,전남광주통합특별시 무안군
봉명보건진료소,전라남도,무안군,전라남도 무안군 몽탄면 봉명양장로 262,전라남도 무안군 몽탄면 봉명리 142,34.8921322,126.4809284,,무안군보건소,061-450-5038,2026-03-30,5880000,전남광주통합특별시 무안군
사창보건진료소,전라남도,무안군,전라남도 무안군 몽탄면 우명길 109,전라남도 무안군 몽탄면 사창리 1222-5,34.96982618,126.5222376,,무안군보건소,061-450-5038,2026-03-30,5880000,전남광주통합특별시 무안군
광암보건진료소,전라남도,무안군,전라남도 무안군 일로읍 삼산로 94,전라남도 무안군 일로읍 산정리 793,34.8686712,126.5084018,,무안군보건소,061-450-5038,2026-03-30,5880000,전남광주통합특별시 무안군
죽산보건진료소,전라남도,무안군,전라남도 무안군 일로읍 죽산길 3,전라남도 무안군 일로읍 죽산리 616-7,34.82540535,126.5036305,,무안군보건소,061-450-5038,2026-03-30,5880000,전남광주통합특별시 무안군
운남보건지소,전라남도,무안군,전라남도 무안군운남면 운해로 607,전라남도 무안군 망운면 연리 406-72,34.96249225,126.3431849,,무안군보건소,061-450-5038,2026-03-30,5880000,전남광주통합특별시 무안군
해제보건지소,전라남도,무안군,전라남도 무안군 해제면 해제중앙로 18,전라남도 무안군 해제면 신정리 10-42,35.11324092,126.2947455,,무안군보건소,061-450-5038,2026-03-30,5880000,전남광주통합특별시 무안군
망운보건지소,전라남도,무안군,전라남도 무안군 망운면 압창길 5,전라남도 무안군 망운면 목동리 596-1,35.01189775,126.3924308,,무안군보건소,061-450-5038,2026-03-30,5880000,전남광주통합특별시 무안군
현경보건지소,전라남도,무안군,전라남도 무안군 현경면 현해로 84,전라남도 무안군 현경면 외반리 567,35.02112064,126.412264,,무안군보건소,061-450-5038,2026-03-30,5880000,전남광주통합특별시 무안군
건강약국,전라남도,무안군,전라남도 무안군 해제면 현해로 1687,전라남도 무안군 해제면 신정리 1115-1번지,35.11064308,126.2948236,,무안군보건소,061-450-5038,2026-03-30,5880000,전남광주통합특별시 무안군
시민약국,전라남도,무안군,전라남도 무안군 무안읍 무안중앙로 17-1,전라남도 무안군 무안읍 성남리 5-7,34.98876807,126.4769933,,무안군보건소,061-450-5038,2026-03-30,5880000,전남광주통합특별시 무안군
운남약국,전라남도,무안군,전라남도 무안군 운남면 운해로 580,전라남도 무안군 운남면 연리 404-2,34.96072074,126.3406481,,무안군보건소,061-450-5038,2026-03-30,5880000,전남광주통합특별시 무안군
무등약국,전라남도,무안군,전라남도 무안군 무안읍 무안중앙로 4,전라남도 무안군 성동리 873-16번지,34.98847548,126.4784778,,무안군보건소,061-450-5038,2026-03-30,5880000,전남광주통합특별시 무안군
새열린온누리약국,전라남도,무안군,전라남도 무안군 무안읍 면성1길 113,전라남도 무안군 무안읍 성남리 88번지 1호,34.98790783,126.4740986,,무안군보건소,061-450-5038,2026-03-30,5880000,전남광주통합특별시 무안군
해제약국,전라남도,무안군,전라남도 무안군 해제면 현해로 1690-5,전라남도 무안군 해제면 신정리 18-2,35.110876,126.2941449,,무안군보건소,061-450-5038,2026-03-30,5880000,전남광주통합특별시 무안군
전남약국,전라남도,무안군,전라남도 무안군 무안읍 무안중앙로 11,전라남도 무안군 무안읍 성동리 885-5번지,34.98853525,126.477684,,무안군보건소,061-450-5038,2026-03-30,5880000,전남광주통합특별시 무안군
조은약국,전라남도,무안군,전라남도 무안군 일로읍 일로로 78-2,전라남도 무안군 일로읍 월암리 186번지 355호,34.84906791,126.4947037,,무안군보건소,061-450-5038,2026-03-30,5880000,전남광주통합특별시 무안군
은혜약국,전라남도,무안군,전라남도 무안군 무안읍 무안중앙로 37,전라남도 무안군 무안읍 성남리 38번지,34.98931993,126.4750171,,무안군보건소,061-450-5038,2026-03-30,5880000,전남광주통합특별시 무안군
제일온누리약국,전라남도,무안군,"전라남도 무안군 삼향읍 대죽서로15번길 36, 1층 (청우프라자)","전라남도 무안군 삼향읍 남악리 2158, 1층 (청우프라자)",34.81248295,126.4612766,,무안군보건소,061-450-5038,2026-03-30,5880000,전남광주통합특별시 무안군
나래약국,전라남도,무안군,전라남도 무안군 무안읍 면성1길 111,전라남도 무안군 무안읍 성남리 77-4,34.98816517,126.4742219,,무안군보건소,061-450-5038,2026-03-30,5880000,전남광주통합특별시 무안군
윤약국,전라남도,무안군,"전라남도 무안군 삼향읍 남악5로48번길 17, 1층 (정우빌딩)",전라남도 무안군 삼향읍 남악리 1849번지,34.80985646,126.4732604,,무안군보건소,061-450-5038,2026-03-30,5880000,전남광주통합특별시 무안군
현대약국,전라남도,무안군,전라남도 무안군 무안읍 몽탄로 67,전라남도 무안군 무안읍 성동리 164번지,34.99144264,126.4890613,,무안군보건소,061-450-5038,2026-03-30,5880000,전남광주통합특별시 무안군
우리팜약국,전라남도,무안군,전라남도 무안군 삼향읍 남악3로 71 (더 트리폴리앙 상가107호),전라남도 무안군 남악리 2104번지,34.8122209,126.4597709,,무안군보건소,061-450-5038,2026-03-30,5880000,전남광주통합특별시 무안군
하나약국,전라남도,무안군,전라남도 무안군 일로읍 일로로 69-1,전라남도 무안군 일로읍 월암리 186번지 82호,34.84986831,126.4946299,,무안군보건소,061-450-5038,2026-03-30,5880000,전남광주통합특별시 무안군
솔약국,전라남도,무안군,전라남도 무안군 삼향읍 남악2로74번길 39 (광일프라자),전라남도 무안군 삼향읍 남악리 2097번지,34.81307571,126.4591856,,무안군보건소,061-450-5038,2026-03-30,5880000,전남광주통합특별시 무안군
참조은약국,전라남도,무안군,"전라남도 무안군 삼향읍 대죽동로 30, 1층",전라남도 무안군 삼향읍 남악리 2238번지,34.81120124,126.4644187,,무안군보건소,061-450-5038,2026-03-30,5880000,전남광주통합특별시 무안군
중앙약국,전라남도,무안군,전라남도 무안군 해제면 봉대로 31,전라남도 무안군 해제면 신정리 10번지 48호,35.11308553,126.2940638,,무안군보건소,061-450-5038,2026-03-30,5880000,전남광주통합특별시 무안군
남악다나약국,전라남도,무안군,"전라남도 무안군 삼향읍 후광대로 242, 전남개발공사 지하1층 102호",전라남도 무안군 삼향읍 남악리 2074번지 전남개발공사 지하1층 102호,34.81397753,126.4581042,,무안군보건소,061-450-5038,2026-03-30,5880000,전남광주통합특별시 무안군
남악약국,전라남도,무안군,"전라남도 무안군 삼향읍 남악4로 86, 한양에드가 오피스텔 1차 1층",전라남도 무안군 삼향읍 남악리 1472번지 한양에드가 오피스텔 1차,34.81315224,126.4663924,,무안군보건소,061-450-5038,2026-03-30,5880000,전남광주통합특별시 무안군
칠성약국,전라남도,무안군,전라남도 무안군 무안읍 무안로 497,전라남도 무안군 무안읍 성남리 271번지 3호,34.98795011,126.4781115,,무안군보건소,061-450-5038,2026-03-30,5880000,전남광주통합특별시 무안군
일로약국,전라남도,무안군,전라남도 무안군 일로읍 일로로 74-1,전라남도 무안군 일로읍 월암리 186번지 67호,34.84940682,126.4945918,,무안군보건소,061-450-5038,2026-03-30,5880000,전남광주통합특별시 무안군
신우그린약국,전라남도,무안군,"전라남도 무안군 삼향읍 남악3로 50, 신우메디칼센터","전라남도 무안군 삼향읍 남악리 2151, 신우메디칼센터",34.80997068,126.4606714,,무안군보건소,061-450-5038,2026-03-30,5880000,전남광주통합특별시 무안군
마음편한약국,전라남도,무안군,"전라남도 무안군 삼향읍 남악4로34번길 6, 132호 (에드가채움 주상복합 아파트)","전라남도 무안군 삼향읍 남악리 2317, 132호 (에드가채움 주상복합 아파트)",34.80745187,126.4664296,,무안군보건소,061-450-5038,2026-03-30,5880000,전남광주통합특별시 무안군
바른약국,전라남도,무안군,"전라남도 무안군 삼향읍 남악3로82번길 42, 가온빌딩 1층 101호",전라남도 무안군 삼향읍 남악리 2246번지,34.81270077,126.4648817,,무안군보건소,061-450-5038,2026-03-30,5880000,전남광주통합특별시 무안군
연합약국,전라남도,무안군,전라남도 무안군 청계면 청계중앙길 8-8,전라남도 무안군 청계면 도림리 489번지 33호,34.91058364,126.4291061,,무안군보건소,061-450-5038,2026-03-30,5880000,전남광주통합특별시 무안군
정은약국,전라남도,무안군,"전라남도 무안군 삼향읍 남악4로 49, 중앙프라자 1층 107호","전라남도 무안군 삼향읍 남악리 2265, 중앙프라자 1층 107호",34.81001913,126.4655637,,무안군보건소,061-450-5038,2026-03-30,5880000,전남광주통합특별시 무안군
우리들온누리약국,전라남도,무안군,"전라남도 무안군 삼향읍 남악4로 71, 1층 102호",전라남도 무안군 삼향읍 남악리 2257 1층 102호,34.81213526,126.4654627,,무안군보건소,061-450-5038,2026-03-30,5880000,전남광주통합특별시 무안군
종합약국,전라남도,무안군,"전라남도 무안군 삼향읍 남악로162번길 80, 1층",전라남도 무안군 삼향읍 남악리 2622 1층,34.80348664,126.4647096,,무안군보건소,061-450-5038,2026-03-30,5880000,전남광주통합특별시 무안군
종로약국,전라남도,무안군,전라남도 무안군 무안읍 공항로 8,전라남도 무안군 무안읍 성동리 616,34.99309605,126.4810988,,무안군보건소,061-450-5038,2026-03-30,5880000,전남광주통합특별시 무안군
사하뷰웰아파트,부산광역시,사하구,부산광역시 사하구 신산북로43번길 59 (신평동),부산광역시 사하구 신평동 669,35.0948806,128.9713391,일단 관리사무소/추후 입대위 거쳐서 확정,부산광역시 사하구청,,2026-04-13,3340000,부산광역시 사하구
국제그린아파트,부산광역시,사하구,부산광역시 사하구 다대로381번길 75 (다대동),부산광역시 사하구 다대동 94-2,35.0660900,128.9844685,관리사무소 앞,부산광역시 사하구청,,2026-04-13,3340000,부산광역시 사하구
e편한세상 사하1차 아파트,부산광역시,사하구,부산광역시 사하구 서포로30번길 26 (구평동),부산광역시 사하구 구평동 517,35.0809930,128.9862763,109동 어린이놀이터 집하장,부산광역시 사하구청,,2026-04-13,3340000,부산광역시 사하구
삼환아파트,부산광역시,사하구,부산광역시 사하구 다대로429번길 20 (다대동),부산광역시 사하구 다대동 120-10,35.0617836,128.9816352,일단 중간지점 설치/추후 입대위 거쳐서 확정,부산광역시 사하구청,,2026-04-13,3340000,부산광역시 사하구
한신아파트,부산광역시,사하구,부산광역시 사하구 비봉로 42 (신평동),부산광역시 사하구 신평동 425,35.0968857,128.9655101,설치당일 결정,부산광역시 사하구청,,2026-04-13,3340000,부산광역시 사하구
가락타운1단지,부산광역시,사하구,부산광역시 사하구 하신번영로 365 (하단동),부산광역시 사하구 하단동 1161-2,35.1103177,128.9585505,105동+114동 경비소초 여백 2개소,부산광역시 사하구청,,2026-04-13,3340000,부산광역시 사하구
하단동 SK VIEW 아파트,부산광역시,사하구,부산광역시 사하구 하신번영로 400 (하단동),부산광역시 사하구 하단동 1217-1,35.1161004,128.9615185,정문경비실+후문 부산은행 현금인출기 인근,부산광역시 사하구청,,2026-04-13,3340000,부산광역시 사하구
가락타운2·3단지,부산광역시,사하구,부산광역시 사하구 하신번영로 233 (하단동),부산광역시 사하구 하단동 1175,35.1010988,128.9579792,205동+305동+320동 분리수거장 옆,부산광역시 사하구청,,2026-04-13,3340000,부산광역시 사하구
괴정3동 행정복지센터,부산광역시,사하구,부산광역시 사하구 낙동대로171번길 30-5,부산광역시 사하구 괴정동 404-2,35.1003633,128.9981060,행정복지센터내,부산광역시 사하구청,,2026-04-13,3340000,부산광역시 사하구
신평2동 행정복지센터,부산광역시,사하구,부산광역시 사하구 하신중앙로 185,부산광역시 사하구 신평동 646-2,35.0949852,128.9615501,행정복지센터내,부산광역시 사하구청,,2026-04-13,3340000,부산광역시 사하구
다대1동 행정복지센터,부산광역시,사하구,부산광역시 사하구 다대로530번길 7,부산광역시 사하구 다대동 933-1,35.0591935,128.9713471,행정복지센터내,부산광역시 사하구청,,2026-04-13,3340000,부산광역시 사하구
신평1동 행정복지센터,부산광역시,사하구,부산광역시 사하구 장평로 258,부산광역시 사하구 신평동 545-1,35.0892349,128.9732645,행정복지센터내,부산광역시 사하구청,,2026-04-13,3340000,부산광역시 사하구
다대2동 행정복지센터,부산광역시,사하구,부산광역시 사하구 다대로429번길 30,부산광역시 사하구 다대동 120-35,35.0635797,128.9820184,행정복지센터내,부산광역시 사하구청,,2026-04-13,3340000,부산광역시 사하구
괴정1동 행정복지센터,부산광역시,사하구,부산광역시 사하구 낙동대로250번안길 3,부산광역시 사하구 괴정동 820-3,35.0997866,128.9893307,행정복지센터내,부산광역시 사하구청,,2026-04-13,3340000,부산광역시 사하구
하단1동 행정복지센터,부산광역시,사하구,부산광역시 사하구 하신중앙로 308,부산광역시 사하구 하단동 608-11,35.1039893,128.9642550,행정복지센터내,부산광역시 사하구청,,2026-04-13,3340000,부산광역시 사하구
구평동 행정복지센터,부산광역시,사하구,부산광역시 사하구 서포로 48,부산광역시 사하구 구평동 159-1,35.0819588,128.9878345,행정복지센터내,부산광역시 사하구청,,2026-04-13,3340000,부산광역시 사하구
괴정2동 행정복지센터,부산광역시,사하구,부산광역시 사하구 까치고개로 14-1,부산광역시 사하구 괴정동 354-22,35.1034196,129.0040363,행정복지센터내,부산광역시 사하구청,,2026-04-13,3340000,부산광역시 사하구
감천1동 행정복지센터,부산광역시,사하구,부산광역시 사하구 감천로 97,부산광역시 사하구 감천동 486-3,35.0884253,129.0028692,행정복지센터내,부산광역시 사하구청,,2026-04-13,3340000,부산광역시 사하구
당리동 행정복지센터,부산광역시,사하구,부산광역시 사하구 낙동대로398번길 21,부산광역시 사하구 당리동 317-52,35.1040203,128.9745527,행정복지센터내,부산광역시 사하구청,,2026-04-13,3340000,부산광역시 사하구
장림1동 행정복지센터,부산광역시,사하구,부산광역시 사하구 장림로161번길 2,부산광역시 사하구 장림동 1140,35.0830752,128.9668892,행정복지센터내,부산광역시 사하구청,,2026-04-13,3340000,부산광역시 사하구
하단2동 행정복지센터,부산광역시,사하구,부산광역시 사하구 하신번영로 377,부산광역시 사하구 하단동 1161-3,35.1146112,128.9605396,행정복지센터내,부산광역시 사하구청,,2026-04-13,3340000,부산광역시 사하구
감천2동 행정복지센터,부산광역시,사하구,부산광역시 사하구 옥천로93번길 14,부산광역시 사하구 감천동 12-9,35.0946350,129.0093695,행정복지센터내,부산광역시 사하구청,,2026-04-13,3340000,부산광역시 사하구
사하구보건소,부산광역시,사하구,부산광역시 사하구 하신중앙로 185,부산광역시 사하구 신평동 646-2,35.0949852,128.9615501,민원실내,부산광역시 사하구청,,2026-04-13,3340000,부산광역시 사하구
장림2동 행정복지센터,부산광역시,사하구,부산광역시 사하구 장평로 131,부산광역시 사하구 장림동 601,35.0779081,128.9726411,행정복지센터내,부산광역시 사하구청,,2026-04-13,3340000,부산광역시 사하구
괴정4동 행정복지센터,부산광역시,사하구,부산광역시 사하구 낙동대로309번길 9,부산광역시 사하구 괴정동 571-2,35.0991665,128.9831751,행정복지센터내,부산광역시 사하구청,,2026-04-13,3340000,부산광역시 사하구
남악더조은약국,전라남도,무안군,전라남도 무안군 삼향읍 남악3로 50 신우메디칼센터 101호,전라남도 무안군 삼향읍 남악리 2151,34.80999096,126.4606907,,무안군보건소,061-450-5038,2026-03-30,5880000,전남광주통합특별시 무안군
청계약국,전라남도,무안군,전라남도 무안군 청계면 청계중앙길 3-1,전라남도 무안군 청계면 도림리 466-25,34.90991366,126.4295125,,무안군보건소,061-450-5038,2026-03-30,5880000,전남광주통합특별시 무안군
제일약국,전라남도,무안군,전라남도 무안군 망운면 압창길 4,전라남도 무안군 망운면 목동리 602-1,35.01209121,126.3918598,,무안군보건소,061-450-5038,2026-03-30,5880000,전남광주통합특별시 무안군
사랑약국,전라남도,무안군,전라남도 무안군 해제면 현해로 1712,전라남도 무안군 해제면 신정리 128-9,35.11069937,126.2923729,,무안군보건소,061-450-5038,2026-03-30,5880000,전남광주통합특별시 무안군
기장군보건소 정관지소,부산광역시,기장군,부산광역시 기장군 정관읍 용수로 11,부산광역시 기장군 정관읍 용수리 1314-1,35.32512161,129.1794952,1층 민원실 앞,기장군보건소,051-709-4806,2026-03-25,3400000,부산광역시 기장군
기장군보건소,부산광역시,기장군,부산광역시 기장군 기장읍 기장대로 560,부산광역시 기장군 기장읍 신천리 1,35.24347702,129.2229513,2층 보건교육장 앞,기장군보건소,051-709-4806,2026-03-25,3400000,부산광역시 기장군
화신아파트,부산광역시,사하구,부산광역시 사하구 사하로 47 (구평동),부산광역시 사하구 구평동 41-7,35.0868212,128.9930176,102-103동 사이,부산광역시 사하구청,,2026-04-13,3340000,부산광역시 사하구
다송아파트,부산광역시,사하구,부산광역시 사하구 다대로381번길 99 (다대동),부산광역시 사하구 다대동 94-5,35.0642917,128.9858718,설치당일 결정,부산광역시 사하구청,,2026-04-13,3340000,부산광역시 사하구
다대푸른아파트,부산광역시,사하구,부산광역시 사하구 다대낙조2길 11 (다대동),부산광역시 사하구 다대동 1548-13,35.0516709,128.9650951,102동 앞 집하장,부산광역시 사하구청,,2026-04-13,3340000,부산광역시 사하구
삼향보건지소,전라남도,무안군,전라남도 무안군 삼향읍 신기길 17,전라남도 무안군 삼향읍 임성리 1363-1,34.82251093,126.4413165,,무안군보건소,061-450-5038,2026-03-30,5880000,전남광주통합특별시 무안군
몽탄보건지소,전라남도,무안군,전라남도 무안군 몽탄면 몽탄로 865,전라남도 무안군 몽탄면 사천리 1037,34.93022944,126.5028011,,무안군보건소,061-450-5038,2026-03-30,5880000,전남광주통합특별시 무안군
청계보건지소,전라남도,무안군,전라남도 무안군 청계면 청계중앙길 14-5,전라남도 무안군 청계면 도림리 501-9,34.91075811,126.4281983,,무안군보건소,061-450-5038,2026-03-30,5880000,전남광주통합특별시 무안군
무안군보건소,전라남도,무안군,전라남도 무안군 무안읍 면성1길 128,전라남도 무안군 무안읍 성남리 813-2,34.98725207,126.4732635,,무안군보건소,061-450-5038,2026-03-30,5880000,전남광주통합특별시 무안군
일로보건지소,전라남도,무안군,전라남도 무안군 일로읍 시장길 7,전라남도 무안군 일로읍 월암리 121-3,34.84796146,126.4948592,,무안군보건소,061-450-5038,2026-03-30,5880000,전남광주통합특별시 무안군
수호온누리약국,경기도,평택시,"경기도 평택시 중앙2로 16, 104호 (평택동)",경기도 평택시 평택동 298-1,36.991486,127.0885957,약국 내부,경기도 평택시청 평택보건소,031-8024-4342,2026-03-06,3910000,경기도 평택시
소사벌온누리약국,경기도,평택시,경기도 평택시 비전4로 47 (비전동),경기도 평택시 비전동 1096,37.002460,127.114571,약국 내부,경기도 평택시청 평택보건소,031-8024-4342,2026-03-06,3910000,경기도 평택시
용이푸른약국,경기도,평택시,"경기도 평택시 현신3길 76, 701동 101호 (용이동, 평택 용이2차 푸르지오)",,36.998051,127.142507,약국 내부,경기도 평택시청 평택보건소,031-8024-4342,2026-03-06,3910000,경기도 평택시
동산약국,경기도,평택시,"경기도 평택시 팽성로 92, 나동 1층",경기도 평택시 팽성읍 송화리 266번지 4호 나동 101호,36.945106,127.051891,약국 내부,경기도 평택시청 평택보건소,031-8024-4342,2026-03-06,3910000,경기도 평택시
다솜약국,경기도,평택시,"경기도 평택시 중앙로 176, 2층 223호 (합정동, 평택합정 SK VIEW 주상복합)",경기도 평택시 합정동 766-2,36.991506,127.101936,약국 내부,경기도 평택시청 평택보건소,031-8024-4342,2026-03-06,3910000,경기도 평택시
뉴그린약국,경기도,평택시,경기도 평택시 중앙로 120 (합정동),,36.992905,127.096291,약국 내부,경기도 평택시청 평택보건소,031-8024-4342,2026-03-06,3910000,경기도 평택시
하나로약국,경기도,평택시,경기도 평택시 부용로55번길 3,경기도 평택시 팽성읍 객사리 168번지 10호,36.965012,127.060988,약국 내부,경기도 평택시청 평택보건소,031-8024-4342,2026-03-06,3910000,경기도 평택시
안중늘푸른약국,경기도,평택시,경기도 평택시 안중읍 안현로서6길 44,경기도 평택시 안중읍 현화리 71-4,36.984800,126.924738,약국 내부,경기도 평택시청 평택보건소,031-8024-8622,2026-03-06,3910000,경기도 평택시
아이사랑약국,경기도,평택시,경기도 평택시 안중로131번길 14-15,경기도 평택시 안중읍 안중리 277번지 98호,36.990079,126.929551,약국 내부,경기도 평택시청 평택보건소,031-8024-8622,2026-03-06,3910000,경기도 평택시
스타약국,경기도,평택시,"경기도 평택시 여술로 20, 평택스타타워 107,108호",경기도 평택시 포승읍 도곡리 1122번지 1호,36.987762,126.844762,약국 내부,경기도 평택시청 평택보건소,031-8024-8622,2026-03-06,3910000,경기도 평택시
수약국,경기도,평택시,"경기도 평택시 안현로서8길 23, 1층 (동흥빌딩)",경기도 평택시 안중읍 현화리 836번지 3호,36.979078,126.922786,약국 내부,경기도 평택시청 평택보건소,031-8024-8622,2026-03-06,3910000,경기도 평택시
서평택약국,경기도,평택시,경기도 평택시 포승향남로 148,경기도 평택시 포승읍 도곡리 745번지 14호,36.987673,126.866409,약국 내부,경기도 평택시청 평택보건소,031-8024-8622,2026-03-06,3910000,경기도 평택시
서울약국,경기도,평택시,경기도 평택시 안중읍 안중로 133,경기도 평택시 안중읍 안중리 233-7,36.98899616,126.931385,약국 내부,경기도 평택시청 평택보건소,031-8024-8622,2026-03-06,3910000,경기도 평택시
산들약국,경기도,평택시,경기도 평택시 안중읍 안중로 141,경기도 평택시 안중읍 안중리 233-16,36.989128,126.932035,약국 내부,경기도 평택시청 평택보건소,031-8024-8622,2026-03-06,3910000,경기도 평택시
봄약국,경기도,평택시,"경기도 평택시 안현로서8길 57, 305호(붐붐프라자)",경기도 평택시 안중읍 현화리 831 붐붐프라자,36.978966,126.9191036,약국 내부,경기도 평택시청 평택보건소,031-8024-8622,2026-03-06,3910000,경기도 평택시
백화점약국,경기도,평택시,경기도 평택시 안현로서2길 14,경기도 평택시 안중읍 안중리 291번지 2호,36.988356,126.9302497,약국 내부,경기도 평택시청 평택보건소,031-8024-8622,2026-03-06,3910000,경기도 평택시
백제당약국,경기도,평택시,"경기도 평택시 안현로서6길 10, 101호 (대원빌딩)",경기도 평택시 안중읍 현화리 31번지,36.983794,126.9280969,약국 내부,경기도 평택시청 평택보건소,031-8024-8622,2026-03-06,3910000,경기도 평택시
민들레약국,경기도,평택시,경기도 평택시 여술2길 22,경기도 평택시 포승읍 도곡리 1144번지 6호,36.987482,126.845620,약국 내부,경기도 평택시청 평택보건소,031-8024-8622,2026-03-06,3910000,경기도 평택시
메디컬참약국,경기도,평택시,"경기도 평택시 안현로 300, 안중 매디컬타워 104호",경기도 평택시 안중읍 송담리 855-1 안중 매디컬타워,36.977777,126.925376,약국 내부,경기도 평택시청 평택보건소,031-8024-8622,2026-03-06,3910000,경기도 평택시
대성약국,경기도,평택시,경기도 평택시 안중로 124-1,경기도 평택시 안중읍 안중리 292번지 11호,36.988608,126.930290,약국 내부,경기도 평택시청 평택보건소,031-8024-8622,2026-03-06,3910000,경기도 평택시
농민약국,경기도,평택시,경기도 평택시 안현로 421,경기도 평택시 안중읍 안중리 294번지 4호,36.987527,126.931350,약국 내부,경기도 평택시청 평택보건소,031-8024-8622,2026-03-06,3910000,경기도 평택시
광혜당약국,경기도,평택시,"경기도 평택시 안현로 429, 서경빌딩 1층",경기도 평택시 안중읍 안중리 297번지 11호 서경빌딩,36.988187,126.931633,약국 내부,경기도 평택시청 평택보건소,031-8024-8622,2026-03-06,3910000,경기도 평택시
공룡약국,경기도,평택시,"경기도 평택시 안현로서8길 57, 211호 (붐붐프라자)",경기도 평택시 안중읍 현화리 831 붐붐프라자,36.978966,126.9191036,약국 내부,경기도 평택시청 평택보건소,031-8024-8622,2026-03-06,3910000,경기도 평택시
평택대형약국,경기도,평택시,경기도 평택시 안중읍 성해1길 18-20,경기도 평택시 안중읍 성해리 280-1,36.99035136,126.9040578,약국 내부,경기도 평택시청 평택보건소,031-8024-8622,2026-03-06,3910000,경기도 평택시
메디팜신광약국,경기도,평택시,경기도 평택시 탄현로 321-1 (신장동),경기도 평택시 신장동 214-45,37.08116432,127.0556231,,경기도 평택시청 송탄보건소,031-8024-7253,2026-03-06,3910000,경기도 평택시
오약국,경기도,평택시,경기도 평택시 관광특구로 25 (서정동),경기도 평택시 서정동 817,37.0671379144,127.0618356,,경기도 평택시청 송탄보건소,031-8024-7253,2026-03-06,3910000,경기도 평택시
인화당약국,경기도,평택시,경기도 평택시 정암로 17 (서정동),경기도 평택시 서정동 332-37,37.05718075,127.0556493,,경기도 평택시청 송탄보건소,031-8024-7253,2026-03-06,3910000,경기도 평택시
구생당약국,경기도,평택시,경기도 평택시 탄현로327번길 4-1 (신장동),경기도 평택시 신장동 214-12,37.08162615,127.0557456,,경기도 평택시청 송탄보건소,031-8024-7253,2026-03-06,3910000,경기도 평택시
신성약국,경기도,평택시,경기도 평택시 탄현로 329 (신장동),경기도 평택시 신장동 214-48,37.08169856,127.0560148,,경기도 평택시청 송탄보건소,031-8024-7253,2026-03-06,3910000,경기도 평택시
아침약국,경기도,평택시,경기도 평택시 탄현로336번길 10 (지산동),경기도 평택시 지산동 753-6,37.08169015,127.0568432,,경기도 평택시청 송탄보건소,031-8024-7253,2026-03-06,3910000,경기도 평택시
보건약국,경기도,평택시,"경기도 평택시 탄현로 287 (신장동, (신장동 227))",경기도 평택시 신장동 227-19,37.07814655,127.0550292,,경기도 평택시청 송탄보건소,031-8024-7253,2026-03-06,3910000,경기도 평택시
온누리영진약국,경기도,평택시,"경기도 평택시 송탄로 220, 1층 (서정동)",경기도 평택시 서정동 864-8,37.06340146,127.058525,,경기도 평택시청 송탄보건소,031-8024-7253,2026-03-06,3910000,경기도 평택시
지산약국,경기도,평택시,경기도 평택시 탄현로 300 (지산동),경기도 평택시 지산동 767-97,37.07937763,127.0549593,,경기도 평택시청 송탄보건소,031-8024-7253,2026-03-06,3910000,경기도 평택시
삼보약국,경기도,평택시,"경기도 평택시 진위면 진위서로 2, 1층 102호",경기도 평택시 진위면 하북리 151-10,37.10924849,127.0639199,,경기도 평택시청 송탄보건소,031-8024-7253,2026-03-06,3910000,경기도 평택시
늘푸른약국,경기도,평택시,경기도 평택시 송탄로371번길 14 (지산동),경기도 평택시 지산동 833-69,37.07684576,127.0569619,,경기도 평택시청 송탄보건소,031-8024-7253,2026-03-06,3910000,경기도 평택시
푸른약국,경기도,평택시,"경기도 평택시 점촌로19번길 59 (서정동, 고려빌딩)",경기도 평택시 서정동 876-8,37.06601637,127.0562956,,경기도 평택시청 송탄보건소,031-8024-7253,2026-03-06,3910000,경기도 평택시
소라약국,경기도,평택시,경기도 평택시 탄현로 340 (지산동),경기도 평택시 지산동 745-1,37.08227988,127.0570794,,경기도 평택시청 송탄보건소,031-8024-7253,2026-03-06,3910000,경기도 평택시
포승원정진료소,경기도,평택시,경기도 평택시 포승읍 포승원정길 23,경기도 평택시 포승읍 원정리 391-22,36.994655,126.841018,보건지소 내부,경기도 평택시청 평택보건소,031-8024-8622,2026-03-06,3910000,경기도 평택시
덕목보건진료소,경기도,평택시,경기도 평택시 현덕면 현덕로 387,경기도 평택시 현덕면 덕목리 503-13,36.952058,126.952572,보건지소 내부,경기도 평택시청 평택보건소,031-8024-8622,2026-03-06,3910000,경기도 평택시
현덕보건지소,경기도,평택시,경기도 평택시 현덕면 인광길 84,경기도 평택시 현덕면 인광리 402-12,36.967352,126.921491,보건지소 내부,경기도 평택시청 평택보건소,031-8024-8622,2026-03-06,3910000,경기도 평택시
오성보건지소,경기도,평택시,경기도 평택시 숙성시장길 23 오성면사무소,경기도 평택시 오성면 숙성리 129-1 사무소,37.007699,126.980080,보건지소 내부,경기도 평택시청 평택보건소,031-8024-8622,2026-03-06,3910000,경기도 평택시
안중보건지소,경기도,평택시,경기도 평택시 안중읍 안현로서9길 24,경기도 평택시 안중읍 현화리 834-10,36.978110,126.922328,보건지소 내부,경기도 평택시청 평택보건소,031-8024-8622,2026-03-06,3910000,경기도 평택시
더조은약국,경기도,평택시,경기도 평택시 포승읍 포승산단로13번길 37-23,경기도 평택시 포승읍 만호리 697-11,36.962593,126.854380,약국 내부,경기도 평택시청 평택보건소,031-8024-8622,2026-03-06,3910000,경기도 평택시
현덕약국,경기도,평택시,경기도 평택시 현덕면 현덕로 1271,경기도 평택시 현덕면 인광리 405-25,36.965414,126.919396,약국 내부,경기도 평택시청 평택보건소,031-8024-8622,2026-03-06,3910000,경기도 평택시
평화약국,경기도,평택시,경기도 평택시 청북읍 청북산단로 48-8,경기도 평택시 청북읍 어연리 889-3,37.050444,126.975439,약국 내부,경기도 평택시청 평택보건소,031-8024-8622,2026-03-06,3910000,경기도 평택시
현화메디컬약국,경기도,평택시,경기도 평택시 안중읍 안현로서8길 17,경기도 평택시 안중읍 현화리 837-1,36.978759,126.923363,약국 내부,경기도 평택시청 평택보건소,031-8024-8622,2026-03-06,3910000,경기도 평택시
햇빛약국,경기도,평택시,"경기도 평택시 여술로 21, 1층 (선구빌딩)",경기도 평택시 포승읍 도곡리 1143번지 12호 1층,36.988297,126.845057,약국 내부,경기도 평택시청 평택보건소,031-8024-8622,2026-03-06,3910000,경기도 평택시
항만약국,경기도,평택시,경기도 평택시 평택항로 1-6,경기도 평택시 포승읍 만호리 311번지 26호,36.961862,126.853867,약국 내부,경기도 평택시청 평택보건소,031-8024-8622,2026-03-06,3910000,경기도 평택시
한솔약국,경기도,평택시,"경기도 평택시 안현로서6길 74, 1층",경기도 평택시 안중읍 현화리 334번지 1호,36.98479987,126.921132,약국 내부,경기도 평택시청 평택보건소,031-8024-8622,2026-03-06,3910000,경기도 평택시
하늘온누리약국,경기도,평택시,"경기도 평택시 안현로 417, 세정빌딩 (102호)",경기도 평택시 안중읍 안중리 298 만성빌딩,36.987292,126.931275,약국 내부,경기도 평택시청 평택보건소,031-8024-8622,2026-03-06,3910000,경기도 평택시
하나약국,경기도,평택시,경기도 평택시 서동대로 1124,경기도 평택시 포승읍 내기리 1-7 우일빌딩1층,36.980665,126.879913,약국 내부,경기도 평택시청 평택보건소,031-8024-8622,2026-03-06,3910000,경기도 평택시
포승중앙약국,경기도,평택시,"경기도 평택시 여술로 22, 101호",경기도 평택시 포승읍 도곡리 1144번지 1호,36.988010,126.845252,약국 내부,경기도 평택시청 평택보건소,031-8024-8622,2026-03-06,3910000,경기도 평택시
포승종로약국,경기도,평택시,경기도 평택시 여술로 37,경기도 평택시 포승읍 도곡리 1142번지 18호,36.988923,126.846452,약국 내부,경기도 평택시청 평택보건소,031-8024-8622,2026-03-06,3910000,경기도 평택시
튼튼약국,경기도,평택시,"경기도 평택시 안중로 143, 101호 (녹원빌딩)",경기도 평택시 안중읍 안중리 233번지 19호 녹원빌딩 101호,36.989265,126.932213,약국 내부,경기도 평택시청 평택보건소,031-8024-8622,2026-03-06,3910000,경기도 평택시
충무약국,경기도,평택시,경기도 평택시 2함대길 20 (해군아파트 상가내),경기도 평택시 포승읍 원정리 1275번지,36.99473725,126.834771,약국 내부,경기도 평택시청 평택보건소,031-8024-8622,2026-03-06,3910000,경기도 평택시
청북온누리약국,경기도,평택시,"경기도 평택시 안청로 332, 한남프라자 102호",경기도 평택시 청북읍 옥길리 1162번지 1호 한남프라자 102호,37.017548,126.915951,약국 내부,경기도 평택시청 평택보건소,031-8024-8622,2026-03-06,3910000,경기도 평택시
청북약국,경기도,평택시,경기도 평택시 청북읍 신포길 47,경기도 평택시 청북읍 후사리 89-2,37.040133,126.933244,약국 내부,경기도 평택시청 평택보건소,031-8024-8622,2026-03-06,3910000,경기도 평택시
참조은약국,경기도,평택시,경기도 평택시 안중읍 안현로서6길 50,경기도 평택시 안중읍 현화리 250-4,36.984882,126.923861,약국 내부,경기도 평택시청 평택보건소,031-8024-8622,2026-03-06,3910000,경기도 평택시
365중앙약국,경기도,평택시,경기도 평택시 안중읍 안현로서6길 18,경기도 평택시 안중읍 현화리 27,36.98418432,126.9274024,약국 내부,경기도 평택시청 평택보건소,031-8024-8622,2026-03-06,3910000,경기도 평택시
중앙메디칼약국,경기도,평택시,경기도 평택시 서동대로 786,경기도 평택시 포승읍 만호리 313번지 9호,36.960755,126.855882,약국 내부,경기도 평택시청 평택보건소,031-8024-8622,2026-03-06,3910000,경기도 평택시
조은약국,경기도,평택시,"경기도 평택시 안중로131번길 4, 도도와빌딩 1층",경기도 평택시 안중읍 안중리 233번지 15호,36.989075,126.931182,약국 내부,경기도 평택시청 평택보건소,031-8024-8622,2026-03-06,3910000,경기도 평택시
우리동네효자약국,경기도,평택시,경기도 평택시 청북읍 청북남로 254,경기도 평택시 청북읍 옥길리 1157-5,37.019666,126.915943,약국 내부,경기도 평택시청 평택보건소,031-8024-8622,2026-03-06,3910000,경기도 평택시
옹달샘약국,경기도,평택시,경기도 평택시 청북남로 260,경기도 평택시 청북읍 옥길리 1157번지 2호,37.01962979,126.915361,약국 내부,경기도 평택시청 평택보건소,031-8024-8622,2026-03-06,3910000,경기도 평택시
오성당약국,경기도,평택시,경기도 평택시 숙성시장길 34-1,경기도 평택시 오성면 숙성리 137번지 9호,37.007533,126.981700,약국 내부,경기도 평택시청 평택보건소,031-8024-8622,2026-03-06,3910000,경기도 평택시
에덴약국,경기도,평택시,경기도 평택시 안현로서2길 20,경기도 평택시 안중읍 안중리 290번지 4호,36.988269,126.929688,약국 내부,경기도 평택시청 평택보건소,031-8024-8622,2026-03-06,3910000,경기도 평택시
안중조약국,경기도,평택시,경기도 평택시 안중읍 안중로 130-2,경기도 평택시 안중읍 안중리 292-17,36.988649,126.930885,약국 내부,경기도 평택시청 평택보건소,031-8024-8622,2026-03-06,3910000,경기도 평택시
안중온누리약국,경기도,평택시,경기도 평택시 안중읍 안중로 139,경기도 평택시 안중읍 안중리 233-14,36.989099,126.931833,약국 내부,경기도 평택시청 평택보건소,031-8024-8622,2026-03-06,3910000,경기도 평택시
편한약국,경기도,평택시,경기도 평택시 동삭로 370-4 (동삭동),,37.018368,127.095889,약국 내부,경기도 평택시청 평택보건소,031-8024-4342,2026-03-06,3910000,경기도 평택시
조아약국,경기도,평택시,경기도 평택시 평택4로 46 (합정동),경기도 평택시 합정동 763-17,36.991832,127.100955,약국 내부,경기도 평택시청 평택보건소,031-8024-4342,2026-03-06,3910000,경기도 평택시
미루나무 약국,경기도,평택시,경기도 평택시 통복로37번길 5 (통복동),경기도 평택시 통복동 110-1,36.99529438,127.082906,약국 내부,경기도 평택시청 평택보건소,031-8024-4342,2026-03-06,3910000,경기도 평택시
아이본약국,경기도,평택시,"경기도 평택시 평택5로34번길 6-1, 1층 103호 (합정동)",경기도 평택시 합정동 965-3,36.989084,127.111760,약국 내부,경기도 평택시청 평택보건소,031-8024-4342,2026-03-06,3910000,경기도 평택시
늘푸른온누리약국,경기도,평택시,"경기도 평택시 지제동삭2로 181-26, Adriamedi Tower 1층 2호 (동삭동)",경기도 평택시 동삭동 0,37.02063576,127.092978,약국 내부,경기도 평택시청 평택보건소,031-8024-4342,2026-03-06,3910000,경기도 평택시
그린약국,경기도,평택시,"경기도 평택시 평택로32번길 24, 1층 3호 (평택동, 라페온빌1차)",경기도 평택시 평택동 293-4,36.991050,127.089270,약국 내부,경기도 평택시청 평택보건소,031-8024-4342,2026-03-06,3910000,경기도 평택시
세교약국,경기도,평택시,"경기도 평택시 세교7길 30, 101호 (세교동)",경기도 평택시 세교동 618-6,37.00425979,127.088224,약국 내부,경기도 평택시청 평택보건소,031-8024-4342,2026-03-06,3910000,경기도 평택시
별빛약국,경기도,평택시,"경기도 평택시 지제동삭1로 41, 130동 2층 33호 (지제동, 지제역 더샵 센트럴시티)",경기도 평택시 지제동 0,37.022175,127.075311,약국 내부,경기도 평택시청 평택보건소,031-8024-4342,2026-03-06,3910000,경기도 평택시
훈약국,경기도,평택시,경기도 평택시 평택로 95(통복동),경기도 평택시 통복동 112-25,36.994970,127.083482,약국 내부,경기도 평택시청 평택보건소,031-8024-4342,2026-03-06,3910000,경기도 평택시
모산골약국,경기도,평택시,"경기도 평택시 지제동삭2로 181-24, 1층 107호 (동삭동)",경기도 평택시 동삭동 0,37.02063576,127.092978,약국 내부,경기도 평택시청 평택보건소,031-8024-4342,2026-03-06,3910000,경기도 평택시
봄빛약국,경기도,평택시,"경기도 평택시 소사5길 24, 202호 (소사동)",,36.9906173,127.1269763,약국 내부,경기도 평택시청 평택보건소,031-8024-4342,2026-03-06,3910000,경기도 평택시
온정약국,경기도,평택시,"경기도 평택시 평택5로 191, 온정약국 1층 (비전동)",경기도 평택시 비전동 819,36.996505,127.102720,약국 내부,경기도 평택시청 평택보건소,031-8024-4342,2026-03-06,3910000,경기도 평택시
나음약국,경기도,평택시,"경기도 평택시 중앙로 270, 1층 101호 (합정동)",경기도 평택시 합정동 964-11,36.989893,127.112683,약국 내부,경기도 평택시청 평택보건소,031-8024-4342,2026-03-06,3910000,경기도 평택시
세교 봄약국,경기도,평택시,"경기도 평택시 세교7길 52, SJ빌딩 1층 102호 (세교동)",경기도 평택시 세교동 617-4,37.006452,127.089475,약국 내부,경기도 평택시청 평택보건소,031-8024-4342,2026-03-06,3910000,경기도 평택시
평택예스약국,경기도,평택시,경기도 평택시 지제동삭1로 208 (동삭동),,37.02063576,127.092978,약국 내부,경기도 평택시청 평택보건소,031-8024-4342,2026-03-06,3910000,경기도 평택시
지제약국,경기도,평택시,"경기도 평택시 영신2길 19, 103호 (세교동)",,37.00905052,127.0907222,약국 내부,경기도 평택시청 평택보건소,031-8024-4342,2026-03-06,3910000,경기도 평택시
365약국,경기도,평택시,"경기도 평택시 소사5길 120, 106호 (소사동)",,36.9917128,127.126462,약국 내부,경기도 평택시청 평택보건소,031-8024-4342,2026-03-06,3910000,경기도 평택시
비전상상약국,경기도,평택시,"경기도 평택시 비전4로 142, 110-111호 (비전동)",,37.00874986,127.107202,약국 내부,경기도 평택시청 평택보건소,031-8024-4342,2026-03-06,3910000,경기도 평택시
365열린약국,경기도,평택시,"경기도 평택시 평남로 1047-1, 102호 (동삭동)",,37.0094348,127.094914,약국 내부,경기도 평택시청 평택보건소,031-8024-4342,2026-03-06,3910000,경기도 평택시
슬림라이프약국,경기도,평택시,"경기도 평택시 모산영신1길 45, 1층 (동삭동)",,37.02063576,127.092978,약국 내부,경기도 평택시청 평택보건소,031-8024-4342,2026-03-06,3910000,경기도 평택시
현덕면사무소,경기도,평택시,경기도 평택시 인광길 84 현덕면 행정복지센터,경기도 평택시 현덕면 인광리 402-12 행정복지센터,36.967352,126.921491,면사무소 내부,경기도 평택시청 평택보건소,031-8024-8622,2026-03-06,3910000,경기도 평택시
온누리수정약국,경기도,평택시,경기도 평택시 중앙시장로20번길 20 (신장동),경기도 평택시 신장동 274-157,37.07928472,127.0530048,,경기도 평택시청 송탄보건소,031-8024-7253,2026-03-06,3910000,경기도 평택시
오성면사무소,경기도,평택시,경기도 평택시 오성면 숙성길 220,경기도 평택시 오성면 숙성리 134-10,37.00727199,126.9801998,면사무소 내부,경기도 평택시청 평택보건소,031-8024-8622,2026-03-06,3910000,경기도 평택시
포승읍사무소,경기도,평택시,경기도 평택시 서동대로 1174-16 포승읍사무소,경기도 평택시 포승읍 방림리 52-13 사무소,36.982815,126.885307,읍사무소 내부,경기도 평택시청 평택보건소,031-8024-8622,2026-03-06,3910000,경기도 평택시
청북읍사무소,경기도,평택시,경기도 평택시 청북읍 청원로 2,경기도 평택시 청북읍 현곡리 293-4,37.040073,126.934583,읍사무소 내부,경기도 평택시청 평택보건소,031-8024-8622,2026-03-06,3910000,경기도 평택시
안중읍사무소,경기도,평택시,경기도 평택시 안현로 400,경기도 평택시 안중읍 안중리 299-10,36.98562396,126.931995,읍사무소 내부,경기도 평택시청 평택보건소,031-8024-8622,2026-03-06,3910000,경기도 평택시
안중출장소,경기도,평택시,경기도 평택시 안중읍 서동대로 1531,경기도 평택시 안중읍 학현리 572,36.990138,126.920147,출장소 내부,경기도 평택시청 평택보건소,031-8024-8622,2026-03-06,3910000,경기도 평택시
장수진료소,경기도,평택시,경기도 평택시 장수안길 35 장수 보건진료소,경기도 평택시 현덕면 장수리 147-2 장수 보건진료소,36.939710,126.901314,보건지소 내부,경기도 평택시청 평택보건소,031-8024-8622,2026-03-06,3910000,경기도 평택시
신영진료소,경기도,평택시,경기도 평택시 중간촌길 18-4 포승읍 신영리 보건진료소,경기도 평택시 포승읍 신영리 235-1 포승읍 신영리 보건진료소,36.953593,126.882622,보건지소 내부,경기도 평택시청 평택보건소,031-8024-8622,2026-03-06,3910000,경기도 평택시
어연진료소,경기도,평택시,경기도 평택시 청북읍 청원로 427,경기도 평택시 청북읍 어연리 898,37.051019,126.977354,보건지소 내부,경기도 평택시청 평택보건소,031-8024-8622,2026-03-06,3910000,경기도 평택시
봄봄온누리약국,경기도,평택시,"경기도 평택시 중앙로 96, 101, 102호 (합정동)",경기도 평택시 합정동 672-2,36.993409,127.093769,약국 내부,경기도 평택시청 평택보건소,031-8024-4342,2026-03-06,3910000,경기도 평택시
비전미소약국,경기도,평택시,"경기도 평택시 비전5로 37, 102호 (비전동)",경기도 평택시 비전동 1097-1,37.001587,127.114716,약국 내부,경기도 평택시청 평택보건소,031-8024-4342,2026-03-06,3910000,경기도 평택시
평택정문약국,경기도,평택시,경기도 평택시 평택로 282 (세교동),경기도 평택시 세교동 439-14,37.008346,127.073411,약국 내부,경기도 평택시청 평택보건소,031-8024-4342,2026-03-06,3910000,경기도 평택시
참바른약국,경기도,평택시,"경기도 평택시 평택로 286, 동진빌딩 102호 (세교동)",경기도 평택시 세교동 439,37.008850,127.073315,약국 내부,경기도 평택시청 평택보건소,031-8024-4342,2026-03-06,3910000,경기도 평택시
우리동네현대약국,경기도,평택시,"경기도 평택시 세교6로 45, 상가동 205호 (세교동, 힐스테이트 평택2차)",경기도 평택시 세교동 597,37.00971057,127.0867788,약국 내부,경기도 평택시청 평택보건소,031-8024-4342,2026-03-06,3910000,경기도 평택시
합정약국,경기도,평택시,경기도 평택시 조개터로42번길 60-1 (합정동),경기도 평택시 합정동 776,36.990123,127.106120,약국 내부,경기도 평택시청 평택보건소,031-8024-4342,2026-03-06,3910000,경기도 평택시
정문약국,경기도,평택시,경기도 평택시 자유로3번길 20 (평택동),,36.992962,127.089483,약국 내부,경기도 평택시청 평택보건소,031-8024-4342,2026-03-06,3910000,경기도 평택시
바른손약국,경기도,평택시,경기도 평택시 안정쇼핑로 42,경기도 평택시 팽성읍 안정리 37번지 13호,36.961286,127.046795,약국 내부,경기도 평택시청 평택보건소,031-8024-4342,2026-03-06,3910000,경기도 평택시
미소짓는약국,경기도,평택시,"경기도 평택시 동삭로 384, 동화메디컬 1층 (동삭동)",경기도 평택시 동삭동 340-13,37.020196,127.096890,약국 내부,경기도 평택시청 평택보건소,031-8024-4342,2026-03-06,3910000,경기도 평택시
천사약국,경기도,평택시,"경기도 평택시 평택5로 30, 롯데마트 평택점 1층 (합정동)",경기도 평택시 합정동 968-1,36.988363,127.111757,약국 내부,경기도 평택시청 평택보건소,031-8024-4342,2026-03-06,3910000,경기도 평택시
열린온누리약국,경기도,평택시,"경기도 평택시 상서재로 55, 근생1동 4호 (동삭동, 평택센트럴자이 3단지)",경기도 평택시 동삭동 852,37.02056647,127.0976854,약국 내부,경기도 평택시청 평택보건소,031-8024-4342,2026-03-06,3910000,경기도 평택시
비전중앙약국,경기도,평택시,"경기도 평택시 비전5로 16, 프라우빌딩 1층 111-나호 (비전동)",경기도 평택시 비전동 1105,36.999855,127.113264,약국 내부,경기도 평택시청 평택보건소,031-8024-4342,2026-03-06,3910000,경기도 평택시
큰솔약국,경기도,평택시,"경기도 평택시 용죽3로 24, 105호 (용이동)",경기도 평택시 용이동 684-1,36.994105,127.125419,약국 내부,경기도 평택시청 평택보건소,031-8024-4342,2026-03-06,3910000,경기도 평택시
솔약국,경기도,평택시,"경기도 평택시 비전3로 25, 골든프라자 102호 (비전동)",경기도 평택시 비전동 1027-3,37.002432,127.104796,약국 내부,경기도 평택시청 평택보건소,031-8024-4342,2026-03-06,3910000,경기도 평택시
사랑의약국,경기도,평택시,"경기도 평택시 용죽2로 32-44, 리더스타워 102호 (용이동)",경기도 평택시 용이동 687-4,36.992439,127.125516,약국 내부,경기도 평택시청 평택보건소,031-8024-4342,2026-03-06,3910000,경기도 평택시
모닝약국,경기도,평택시,"경기도 평택시 소사2길 4, 1층 (소사동)",경기도 평택시 소사동 515,36.989913,127.121490,약국 내부,경기도 평택시청 평택보건소,031-8024-4342,2026-03-06,3910000,경기도 평택시
새서울약국,경기도,평택시,경기도 평택시 평택2로20번길 15 (평택동),경기도 평택시 평택동 289-2,36.992628,127.089419,약국 내부,경기도 평택시청 평택보건소,031-8024-4342,2026-03-06,3910000,경기도 평택시
다온수약국,경기도,평택시,"경기도 평택시 용죽3로 18, 다온빌딩 102호 (용이동)",경기도 평택시 용이동 685-3,36.993530,127.125650,약국 내부,경기도 평택시청 평택보건소,031-8024-4342,2026-03-06,3910000,경기도 평택시
맑은약국,경기도,평택시,"경기도 평택시 비전5로 20-26, 로데오1103더테라스 129호 (비전동)",경기도 평택시 비전동 1103-3,36.998847,127.114613,약국 내부,경기도 평택시청 평택보건소,031-8024-4342,2026-03-06,3910000,경기도 평택시
에브리데이항상약국,경기도,평택시,"경기도 평택시 평남로 951, 디에이치빌딩 1동 1층 103호 (비전동)",경기도 평택시 비전동 995,37.005278,127.103426,약국 내부,경기도 평택시청 평택보건소,031-8024-4342,2026-03-06,3910000,경기도 평택시
동삭센트럴약국,경기도,평택시,"경기도 평택시 동삭1로22번길 19-21, 동삭프라자 102호 (동삭동)",,37.02089847,127.0932608,약국 내부,경기도 평택시청 평택보건소,031-8024-4342,2026-03-06,3910000,경기도 평택시
경기약국,경기도,평택시,경기도 평택시 중앙시장로19번길 17 (신장동),경기도 평택시 신장동 317-4,37.08088354,127.0520586,,경기도 평택시청 송탄보건소,031-8024-7253,2026-03-06,3910000,경기도 평택시
바른약국,경기도,평택시,"경기도 평택시 평택2로20번길 14, 1층 (평택동)",경기도 평택시 평택동 290-7,36.992480,127.088994,약국 내부,경기도 평택시청 평택보건소,031-8024-4342,2026-03-06,3910000,경기도 평택시
평택튼튼약국,경기도,평택시,"경기도 평택시 세교8길 30, 세교디오네프라자 125호 (세교동)",,37.009047,127.090718,약국 내부,경기도 평택시청 평택보건소,031-8024-4342,2026-03-06,3910000,경기도 평택시
건약국,경기도,평택시,"경기도 평택시 평택4로 41, 1층 (합정동)",경기도 평택시 합정동 762-6,36.991765,127.100383,약국 내부,경기도 평택시청 평택보건소,031-8024-4342,2026-03-06,3910000,경기도 평택시
동서약국,경기도,평택시,"경기도 평택시 통복로 45-1, 1층 (통복동)",경기도 평택시 통복동 100-1,36.996220,127.083108,약국 내부,경기도 평택시청 평택보건소,031-8024-4342,2026-03-06,3910000,경기도 평택시
코끼리약국,경기도,평택시,"경기도 평택시 동삭1로22번길 19-17, 메인프라자 101호 (동삭동)",,37.02063576,127.092978,약국 내부,경기도 평택시청 평택보건소,031-8024-4342,2026-03-06,3910000,경기도 평택시
봄봄약국,경기도,평택시,"경기도 평택시 비전5로 20-18, 가로수빌딩 105호 (비전동)",경기도 평택시 비전동 1103,36.998875,127.113579,약국 내부,경기도 평택시청 평택보건소,031-8024-4342,2026-03-06,3910000,경기도 평택시
나무약국,경기도,평택시,경기도 평택시 평택5로20번길 38 (합정동),,36.989956,127.113884,약국 내부,경기도 평택시청 평택보건소,031-8024-4342,2026-03-06,3910000,경기도 평택시
도담약국,경기도,평택시,경기도 평택시 동삭1로22번길 19-15 (동삭동),,37.02063576,127.092978,약국 내부,경기도 평택시청 평택보건소,031-8024-4342,2026-03-06,3910000,경기도 평택시
장당온누리약국,경기도,평택시,"경기도 평택시 청원로 1200, 1층 105호 (이충동, 금강프라자 )",경기도 평택시 이충동 609-2,37.05202947,127.0562777,,경기도 평택시청 송탄보건소,031-8024-7253,2026-03-06,3910000,경기도 평택시
시네마약국,경기도,평택시,"경기도 평택시 관광특구로 19, 1층 (서정동)",경기도 평택시 서정동 818-36,37.06725126,127.0609078,,경기도 평택시청 송탄보건소,031-8024-7253,2026-03-06,3910000,경기도 평택시
국민약국,경기도,평택시,경기도 평택시 탄현로 320 (지산동),경기도 평택시 지산동 763-3,37.08081702,127.0558766,,경기도 평택시청 송탄보건소,031-8024-7253,2026-03-06,3910000,경기도 평택시
명성약국,경기도,평택시,"경기도 평택시 관광특구로 19, 3층 307호 (서정동)",경기도 평택시 서정동 818-36,37.06725126,127.0609078,,경기도 평택시청 송탄보건소,031-8024-7253,2026-03-06,3910000,경기도 평택시
뜨란약국,경기도,평택시,"경기도 평택시 이충로35번길 22, 106호 (이충동, 뜨란프라자)",경기도 평택시 이충동 668-3,37.05981267,127.0667167,,경기도 평택시청 송탄보건소,031-8024-7253,2026-03-06,3910000,경기도 평택시
GS약국,경기도,평택시,경기도 평택시 관광특구로 31 (서정동),경기도 평택시 서정동 817-3,37.06708993,127.062553,,경기도 평택시청 송탄보건소,031-8024-7253,2026-03-06,3910000,경기도 평택시
새시장약국,경기도,평택시,경기도 평택시 지산로 60 (지산동),경기도 평택시 지산동 1075,37.07960375,127.0616547,,경기도 평택시청 송탄보건소,031-8024-7253,2026-03-06,3910000,경기도 평택시
365녹십자약국,경기도,평택시,경기도 평택시 중앙로 2 (통복동),,36.995412,127.083522,약국 내부,경기도 평택시청 평택보건소,031-8024-4342,2026-03-06,3910000,경기도 평택시
햇살약국,경기도,평택시,"경기도 평택시 현촌4길 2-41, 103호 (용이동, 한국마트 주차빌딩)",,36.999119,127.133215,약국 내부,경기도 평택시청 평택보건소,031-8024-4342,2026-03-06,3910000,경기도 평택시
명약국,경기도,평택시,"경기도 평택시 비전5로 11, 4층 403호 (비전동)",,37.000120,127.112609,약국 내부,경기도 평택시청 평택보건소,031-8024-4342,2026-03-06,3910000,경기도 평택시
오렌지약국,경기도,평택시,경기도 평택시 평남로 722 (비전동),,36.99427056,127.114341,약국 내부,경기도 평택시청 평택보건소,031-8024-4342,2026-03-06,3910000,경기도 평택시
비전하늘약국,경기도,평택시,"경기도 평택시 평남로 941 (비전동, 우성메디피아)",,37.004617,127.104175,약국 내부,경기도 평택시청 평택보건소,031-8024-4342,2026-03-06,3910000,경기도 평택시
조일약국,경기도,평택시,경기도 평택시 평택로32번길 2 (평택동),,36.990610,127.088309,약국 내부,경기도 평택시청 평택보건소,031-8024-4342,2026-03-06,3910000,경기도 평택시
햇살가득한약국,경기도,평택시,경기도 평택시 자유로3번길 15 (평택동),,36.992862,127.089360,약국 내부,경기도 평택시청 평택보건소,031-8024-4342,2026-03-06,3910000,경기도 평택시
비전약국,경기도,평택시,"경기도 평택시 평남로 937 (비전동, 폴리프라자)",,37.004394,127.104459,약국 내부,경기도 평택시청 평택보건소,031-8024-4342,2026-03-06,3910000,경기도 평택시
로데오약국,경기도,평택시,"경기도 평택시 평택로 78, 1층 (평택동)",경기도 평택시 평택동 71-3,36.993982,127.085078,약국 내부,경기도 평택시청 평택보건소,031-8024-4342,2026-03-06,3910000,경기도 평택시
태평양약국,경기도,평택시,경기도 평택시 중앙로 298 (합정동),경기도 평택시 합정동 866-6,36.990492,127.115687,약국 내부,경기도 평택시청 평택보건소,031-8024-4342,2026-03-06,3910000,경기도 평택시
마트종로약국,경기도,평택시,"경기도 평택시 영신로 29 (지제동, 이마트내)",경기도 평택시 지제동 50,37.021113,127.075538,약국 내부,경기도 평택시청 평택보건소,031-8024-4342,2026-03-06,3910000,경기도 평택시
나래약국,경기도,평택시,경기도 평택시 중앙로 66 (평택동),경기도 평택시 평택동 284,36.993843,127.090472,약국 내부,경기도 평택시청 평택보건소,031-8024-4342,2026-03-06,3910000,경기도 평택시
나라약국,경기도,평택시,경기도 평택시 평택로32번길 21 (평택동),경기도 평택시 평택동 298-3,36.991280,127.088750,약국 내부,경기도 평택시청 평택보건소,031-8024-4342,2026-03-06,3910000,경기도 평택시
수정약국,경기도,평택시,경기도 평택시 안정쇼핑로 36 (외 1필지),경기도 평택시 팽성읍 안정리 148번지 5호 외 1필지,36.960849,127.046283,약국 내부,경기도 평택시청 평택보건소,031-8024-4342,2026-03-06,3910000,경기도 평택시
산수유한약국,경기도,평택시,경기도 평택시 평택로 71-1 (평택동),경기도 평택시 평택동 59-10,36.993261,127.085053,약국 내부,경기도 평택시청 평택보건소,031-8024-4342,2026-03-06,3910000,경기도 평택시
유일약국,경기도,평택시,경기도 평택시 원평1로 30 (평택동),경기도 평택시 평택동 164-42,36.989409,127.083403,약국 내부,경기도 평택시청 평택보건소,031-8024-4342,2026-03-06,3910000,경기도 평택시
성모약국,경기도,평택시,"경기도 평택시 경기대로 269 (비전동, 103호)",경기도 평택시 비전동 830-3,36.994689,127.112976,약국 내부,경기도 평택시청 평택보건소,031-8024-4342,2026-03-06,3910000,경기도 평택시
평택종합약국,경기도,평택시,경기도 평택시 경기대로 267 (비전동),경기도 평택시 비전동 830-7,36.994491,127.113045,약국 내부,경기도 평택시청 평택보건소,031-8024-4342,2026-03-06,3910000,경기도 평택시
안정약국,경기도,평택시,경기도 평택시 팽성읍 안정쇼핑로 37-1,경기도 평택시 팽성읍 안정리 38-10,36.961227,127.046223,약국 내부,경기도 평택시청 평택보건소,031-8024-4342,2026-03-06,3910000,경기도 평택시
미소약국,경기도,평택시,경기도 평택시 평택2로 6 (평택동),경기도 평택시 평택동 46-9,36.992190,127.087537,약국 내부,경기도 평택시청 평택보건소,031-8024-4342,2026-03-06,3910000,경기도 평택시
고려사약국,경기도,평택시,경기도 평택시 중앙2로 25 (평택동),경기도 평택시 평택동 292-6,36.991748,127.089845,약국 내부,경기도 평택시청 평택보건소,031-8024-4342,2026-03-06,3910000,경기도 평택시
동대문약국,경기도,평택시,"경기도 평택시 중앙로 335, 상가동 1층 101호, 지층 2,3,4호 (비전동, 벽산아파트)",경기도 평택시 비전동 889,36.992042,127.119286,약국 내부,경기도 평택시청 평택보건소,031-8024-4342,2026-03-06,3910000,경기도 평택시
삼성약국,경기도,평택시,"경기도 평택시 중앙로 335, 1,2층 103,104,203호 (비전동, 벽산아파트)",경기도 평택시 비전동 889,36.992042,127.119286,약국 내부,경기도 평택시청 평택보건소,031-8024-4342,2026-03-06,3910000,경기도 평택시
평택프라자약국,경기도,평택시,경기도 평택시 중앙로 84 (합정동),경기도 평택시 합정동 672-33,36.993614,127.092351,약국 내부,경기도 평택시청 평택보건소,031-8024-4342,2026-03-06,3910000,경기도 평택시
평택제일약국,경기도,평택시,경기도 평택시 중앙로 82-1 (합정동),경기도 평택시 합정동 672-10,36.993730,127.092147,약국 내부,경기도 평택시청 평택보건소,031-8024-4342,2026-03-06,3910000,경기도 평택시
한진약국,경기도,평택시,경기도 평택시 중앙로 205 (비전동),,36.991301,127.105792,약국 내부,경기도 평택시청 평택보건소,031-8024-4342,2026-03-06,3910000,경기도 평택시
느티나무약국,경기도,평택시,"경기도 평택시 원평로25번길 61-1, 301호 (군문동)",경기도 평택시 군문동 360-4,36.986171,127.082981,약국 내부,경기도 평택시청 평택보건소,031-8024-4342,2026-03-06,3910000,경기도 평택시
건강약국,경기도,평택시,경기도 평택시 평택2로20번길 8 (평택동),경기도 평택시 평택동 282,36.992749,127.088777,약국 내부,경기도 평택시청 평택보건소,031-8024-4342,2026-03-06,3910000,경기도 평택시
메디칼 세계로 약국,경기도,평택시,경기도 평택시 중앙로 9-1 (통복동),경기도 평택시 통복동 86-25,36.995618,127.084530,약국 내부,경기도 평택시청 평택보건소,031-8024-4342,2026-03-06,3910000,경기도 평택시
행복약국,경기도,평택시,경기도 평택시 중앙로 268 (합정동),경기도 평택시 합정동 964-10,36.989856,127.112537,약국 내부,경기도 평택시청 평택보건소,031-8024-4342,2026-03-06,3910000,경기도 평택시
참사랑약국,경기도,평택시,경기도 평택시 중앙로 284 (합정동),경기도 평택시 합정동 966-6,36.990210,127.114140,약국 내부,경기도 평택시청 평택보건소,031-8024-4342,2026-03-06,3910000,경기도 평택시
굿모닝팜약국,경기도,평택시,경기도 평택시 조개터로48번길 35 (합정동),경기도 평택시 합정동 772번지 3호,36.991001,127.104245,약국 내부,경기도 평택시청 평택보건소,031-8024-4342,2026-03-06,3910000,경기도 평택시
경희당한약국,경기도,평택시,경기도 평택시 통복시장로21번길 19 (통복동),경기도 평택시 통복동 95-21,36.997311,127.084330,약국 내부,경기도 평택시청 평택보건소,031-8024-4342,2026-03-06,3910000,경기도 평택시
유약국,경기도,평택시,"경기도 평택시 부용로 27, 106호",경기도 평택시 팽성읍 송화리 779번지 1호 106호,36.963237,127.058730,약국 내부,경기도 평택시청 평택보건소,031-8024-4342,2026-03-06,3910000,경기도 평택시
드림약국,경기도,평택시,경기도 평택시 비전5로 3 (비전동),경기도 평택시 비전동 1090,36.999924,127.111668,약국 내부,경기도 평택시청 평택보건소,031-8024-4342,2026-03-06,3910000,경기도 평택시
열린약국,경기도,평택시,"경기도 평택시 서동대로 3879, 1층 103호 (용이동)",경기도 평택시 용이동 468-1,36.994277,127.137853,약국 내부,경기도 평택시청 평택보건소,031-8024-4342,2026-03-06,3910000,경기도 평택시
한빛약국,경기도,평택시,"경기도 평택시 중앙2로 13, 1층 114호 (평택동, 센텀스카이빌딩)",경기도 평택시 평택동 291,36.991963,127.088528,약국 내부,경기도 평택시청 평택보건소,031-8024-4342,2026-03-06,3910000,경기도 평택시
서재중앙약국,경기도,평택시,"경기도 평택시 서재로 2, 101호 (동삭동, 한주빌딩)",경기도 평택시 동삭동 711-13,37.009875,127.0988015,약국 내부,경기도 평택시청 평택보건소,031-8024-4342,2026-03-06,3910000,경기도 평택시
민중약국,경기도,평택시,경기도 평택시 평택로 102 (통복동),경기도 평택시 통복동 98-5,36.995880,127.083482,약국 내부,경기도 평택시청 평택보건소,031-8024-4342,2026-03-06,3910000,경기도 평택시
바다약국,경기도,평택시,경기도 평택시 평택로 41 (평택동),경기도 평택시 평택동 55-3,36.9911255,127.0870808,약국 내부,경기도 평택시청 평택보건소,031-8024-4342,2026-03-06,3910000,경기도 평택시
우리약국,경기도,평택시,경기도 평택시 평택1로 41 (통복동),경기도 평택시 통복동 83-7,36.995696,127.087619,약국 내부,경기도 평택시청 평택보건소,031-8024-4342,2026-03-06,3910000,경기도 평택시
한일약국,경기도,평택시,경기도 평택시 평택2로 34 (평택동),경기도 평택시 평택동 32-2,36.993686,127.089957,약국 내부,경기도 평택시청 평택보건소,031-8024-4342,2026-03-06,3910000,경기도 평택시
신진약국,경기도,평택시,경기도 평택시 안정로39번길 32,경기도 평택시 팽성읍 안정리 37번지 26호,36.961107,127.0470033,약국 내부,경기도 평택시청 평택보건소,031-8024-4342,2026-03-06,3910000,경기도 평택시
다나약국,경기도,평택시,경기도 평택시 중앙로 148 (합정동),경기도 평택시 합정동 757-4,36.992307,127.099343,약국 내부,경기도 평택시청 평택보건소,031-8024-4342,2026-03-06,3910000,경기도 평택시
경기약국,경기도,평택시,경기도 평택시 중앙로 21-1 (통복동),경기도 평택시 통복동 85-27,36.995267,127.085759,약국 내부,경기도 평택시청 평택보건소,031-8024-4342,2026-03-06,3910000,경기도 평택시
시장약국,경기도,평택시,"경기도 평택시 통복로 43, 1층 (통복동)",경기도 평택시 통복동 100-5,36.995994,127.083020,약국 내부,경기도 평택시청 평택보건소,031-8024-4342,2026-03-06,3910000,경기도 평택시
아빠약국,경기도,평택시,경기도 평택시 평택4로 69-1 (비전동),경기도 평택시 비전동 751-7,36.994178,127.101309,약국 내부,경기도 평택시청 평택보건소,031-8024-4342,2026-03-06,3910000,경기도 평택시
한마음약국,경기도,평택시,경기도 평택시 팽성읍 동서촌로 74,경기도 평택시 팽성읍 객사리 126-3,36.964439,127.060366,약국 내부,경기도 평택시청 평택보건소,031-8024-4342,2026-03-06,3910000,경기도 평택시
구세약국,경기도,평택시,경기도 평택시 중앙로 162 (합정동),경기도 평택시 합정동 763,36.991959,127.101021,약국 내부,경기도 평택시청 평택보건소,031-8024-4342,2026-03-06,3910000,경기도 평택시
한라약국,경기도,평택시,"경기도 평택시 세교로 8, 105호 (세교동, 현대향촌아파트상가)",경기도 평택시 세교동 560번지 현대향촌아파트상가 105호,37.002760,127.079400,약국 내부,경기도 평택시청 평택보건소,031-8024-4342,2026-03-06,3910000,경기도 평택시
유명약국,경기도,평택시,경기도 평택시 세교상가1길 3 (세교동),경기도 평택시 세교동 561-14,37.000139,127.0795043,약국 내부,경기도 평택시청 평택보건소,031-8024-4342,2026-03-06,3910000,경기도 평택시
부영약국,경기도,평택시,"경기도 평택시 세교공원로 66, 101호 (세교동, 부영아파트상가1동)",경기도 평택시 세교동 555,37.003252,127.084652,약국 내부,경기도 평택시청 평택보건소,031-8024-4342,2026-03-06,3910000,경기도 평택시
한영약국,경기도,평택시,경기도 평택시 평택로 104 (통복동),경기도 평택시 통복동 98-19,36.995915,127.083336,약국 내부,경기도 평택시청 평택보건소,031-8024-4342,2026-03-06,3910000,경기도 평택시
인영온누리약국,경기도,평택시,경기도 평택시 평택2로20번길 4 (평택동),경기도 평택시 평택동 43-1,36.99289742,127.088629,약국 내부,경기도 평택시청 평택보건소,031-8024-4342,2026-03-06,3910000,경기도 평택시
대학로약국,경기도,평택시,경기도 평택시 평택로 282 (세교동),경기도 평택시 세교동 439-14,37.008346,127.073411,약국 내부,경기도 평택시청 평택보건소,031-8024-4342,2026-03-06,3910000,경기도 평택시
시민약국,경기도,평택시,경기도 평택시 중앙1로56번길 22-10 (비전동),경기도 평택시 비전동 629-5,36.996737,127.088269,약국 내부,경기도 평택시청 평택보건소,031-8024-4342,2026-03-06,3910000,경기도 평택시
하늘약국,경기도,평택시,"경기도 평택시 중앙로 165 (비전동, 외 1필지)",경기도 평택시 비전동 761-3,36.992196,127.101355,약국 내부,경기도 평택시청 평택보건소,031-8024-4342,2026-03-06,3910000,경기도 평택시
제세온누리약국,경기도,평택시,경기도 평택시 조개터로42번길 58 (합정동),경기도 평택시 합정동 775-10,36.990175,127.105827,약국 내부,경기도 평택시청 평택보건소,031-8024-4342,2026-03-06,3910000,경기도 평택시
으뜸약국,경기도,평택시,경기도 평택시 평택2로20번길 11 (평택동),경기도 평택시 평택동 289-1,36.992770,127.089238,약국 내부,경기도 평택시청 평택보건소,031-8024-4342,2026-03-06,3910000,경기도 평택시
영진약국,경기도,평택시,경기도 평택시 평택1로 4 (평택동),경기도 평택시 평택동 45-4,36.992330,127.087041,약국 내부,경기도 평택시청 평택보건소,031-8024-4342,2026-03-06,3910000,경기도 평택시
성심약국,경기도,평택시,경기도 평택시 중앙2로 1 (평택동),경기도 평택시 평택동 46-4,36.991988,127.0872265,약국 내부,경기도 평택시청 평택보건소,031-8024-4342,2026-03-06,3910000,경기도 평택시
정다운약국,경기도,평택시,경기도 평택시 중앙로 8 (통복동),경기도 평택시 통복동 111-29,36.995227,127.084018,약국 내부,경기도 평택시청 평택보건소,031-8024-4342,2026-03-06,3910000,경기도 평택시
큰사랑약국,경기도,평택시,경기도 평택시 중앙2로 37 (합정동),경기도 평택시 합정동 733-14,36.991569,127.091139,약국 내부,경기도 평택시청 평택보건소,031-8024-4342,2026-03-06,3910000,경기도 평택시
행복한약국,경기도,평택시,"경기도 평택시 세교공원로 66, 109호 (세교동, 부영아파트상가2동)",경기도 평택시 세교동 555,37.003252,127.084652,약국 내부,경기도 평택시청 평택보건소,031-8024-4342,2026-03-06,3910000,경기도 평택시
한남약국,경기도,평택시,경기도 평택시 중앙로 7-1 (통복동),경기도 평택시 통복동 86-5,36.995570,127.0841995,약국 내부,경기도 평택시청 평택보건소,031-8024-4342,2026-03-06,3910000,경기도 평택시
비타민약국,경기도,평택시,경기도 평택시 평택2로20번길 31 (평택동),경기도 평택시 평택동 292-7,36.991955,127.089888,약국 내부,경기도 평택시청 평택보건소,031-8024-4342,2026-03-06,3910000,경기도 평택시
강남약국,경기도,평택시,"경기도 평택시 평택로 54 (평택동, 외1필지)",경기도 평택시 평택동 62-7,36.992227,127.086537,약국 내부,경기도 평택시청 평택보건소,031-8024-4342,2026-03-06,3910000,경기도 평택시
연희약국,경기도,평택시,경기도 평택시 중앙로 105 (비전동),경기도 평택시 비전동 731-5,36.993580,127.094890,약국 내부,경기도 평택시청 평택보건소,031-8024-4342,2026-03-06,3910000,경기도 평택시
신장2동 행정복지센터,경기도,평택시,경기도 평택시 밀월로21번길 7 (신장동),경기도 평택시 신장동 280-23,37.07645155,127.0524347,,경기도 평택시청 송탄보건소,031-8024-7253,2026-03-06,3910000,경기도 평택시
고덕동 행정복지센터,경기도,평택시,경기도 평택시 고덕여염9길 37 3층 (고덕동),경기도 평택시 고덕동 1347-3,37.04053295,127.050415,,경기도 평택시청 송탄보건소,031-8024-7253,2026-03-06,3910000,경기도 평택시
문곡보건진료소,경기도,평택시,경기도 평택시 문곡길 5,경기도 평택시 고덕면 문곡리 308-1,37.05594461,127.0087917,,경기도 평택시청 송탄보건소,031-8024-7253,2026-03-06,3910000,경기도 평택시
고덕보건지소,경기도,평택시,경기도 평택시 고덕로 283 (고덕동),경기도 평택시 고덕동 1693-1139,37.04210128,127.0176676,,경기도 평택시청 송탄보건소,031-8024-7253,2026-03-06,3910000,경기도 평택시
고덕면 행정복지센터,경기도,평택시,경기도 평택시 고덕로 283,경기도 평택시 고덕동 1693-1139,37.04210128,127.0176676,,경기도 평택시청 송탄보건소,031-8024-7253,2026-03-06,3910000,경기도 평택시
평택시 송탄출장소,경기도,평택시,경기도 평택시 경기대로 1366 (서정동),경기도 평택시 서정동 800,37.06581156,127.0650909,,경기도 평택시청 송탄보건소,031-8024-7253,2026-03-06,3910000,경기도 평택시
평택시청 민원실,경기도,평택시,경기도 평택시 경기대로 245,경기도 평택시 비전동 846,36.992289,127.112554,민원실 안,경기도 평택시청 평택보건소,031-8024-4342,2026-03-06,3910000,경기도 평택시
동삭동행정복지센터,경기도,평택시,경기도 평택시 상서재로2길 56-10,경기도 평택시 동삭동 849-2,37.015227,127.103433,센터 안,경기도 평택시청 평택보건소,031-8024-4342,2026-03-06,3910000,경기도 평택시
용이동행정복시젠터,경기도,평택시,"경기도 평택시 현촌5길 5-19, 예솔빌딩 2층","경기도 평택시 용이동 597-11, 예솔빌딩 2층",36.997573,127.133727,센터 안,경기도 평택시청 평택보건소,031-8024-4342,2026-03-06,3910000,경기도 평택시
세교동행정복지센터,경기도,평택시,경기도 평택시 평택로 149,경기도 평택시 신대동 112-15,36.998733,127.079516,건물 내부,경기도 평택시청 평택보건소,031-8024-4342,2026-03-06,3910000,경기도 평택시
비전2동행정복지센터,경기도,평택시,경기도 평택시 중앙로 261,경기도 평택시 비전동 849,36.990310,127.111757,건물 내부,경기도 평택시청 평택보건소,031-8024-4342,2026-03-06,3910000,경기도 평택시
비전1동행정복지센터,경기도,평택시,경기도 평택시 비전2로 330,경기도 평택시 죽백동 724,37.010940,127.112180,건물 내부,경기도 평택시청 평택보건소,031-8024-4342,2026-03-06,3910000,경기도 평택시
통복동행정복지센터,경기도,평택시,경기도 평택시 통복시장로48번길 41,경기도 평택시 통복동 541,37.000794,127.087277,건물 내부,경기도 평택시청 평택보건소,031-8024-4342,2026-03-06,3910000,경기도 평택시
원평동행정복지센터,경기도,평택시,경기도 평택시 원평2로 9,경기도 평택시 통복동 172-6,36.989279,127.080495,건물 내부,경기도 평택시청 평택보건소,031-8024-4342,2026-03-06,3910000,경기도 평택시
신평동행정복지센터,경기도,평택시,경기도 평택시 평택3로 9,경기도 평택시 합정동 832,36.990039,127.092652,건물 내부,경기도 평택시청 평택보건소,031-8024-4342,2026-03-06,3910000,경기도 평택시
팽성읍행정복지센터,경기도,평택시,경기도 평택시 팽성읍 동서촌로 89,경기도 평택시 팽성읍 객사리 170-2,36.965176,127.062345,건물 내부,경기도 평택시청 평택보건소,031-8024-4342,2026-03-06,3910000,경기도 평택시
두정리보건진료소,경기도,평택시,경기도 평택시 두정길 53,,36.944861,127.026016,건물 내부,경기도 평택시청 평택보건소,031-8024-4342,2026-03-06,3910000,경기도 평택시
팽성원정보건진료소,경기도,평택시,경기도 평택시 팽성북로 29,,36.973951,127.042818,건물 내부,경기도 평택시청 평택보건소,031-8024-4342,2026-03-06,3910000,경기도 평택시
팽성보건지소,경기도,평택시,경기도 평택시 팽성남산4길 6,경기도 평택시 팽성읍 남산리 산 59번지,36.957647,127.059529,건물 내부,경기도 평택시청 평택보건소,031-8024-4342,2026-03-06,3910000,경기도 평택시
평택보건소,경기도,평택시,경기도 평택시 평택5로 56,,36.99089576,127.1119697,C동 1층,경기도 평택시청 평택보건소,031-8024-4342,2026-03-06,3910000,경기도 평택시
봄날약국,경기도,평택시,"경기도 평택시 영신2길 87, 영신빌딩 104호 (세교동)",경기도 평택시 세교동 0 영신빌딩,37.02055703,127.0839731,약국 내부,경기도 평택시청 평택보건소,031-8024-4342,2026-03-06,3910000,경기도 평택시
도토리약국,경기도,평택시,"경기도 평택시 원평로105번길 42, 104호 (통복동)",경기도 평택시 통복동 263-6,36.99336503,127.078176,약국 내부,경기도 평택시청 평택보건소,031-8024-4342,2026-03-06,3910000,경기도 평택시
바른정약국,경기도,평택시,경기도 평택시 중앙로 29 (통복동),경기도 평택시 통복동 84-3,36.99533505,127.0864098,약국 내부,경기도 평택시청 평택보건소,031-8024-4342,2026-03-06,3910000,경기도 평택시
자연약국,경기도,평택시,"경기도 평택시 비전5로 11, 102호 (비전동)",경기도 평택시 비전동 1091-4,37.00012028,127.1126092,약국 내부,경기도 평택시청 평택보건소,031-8024-4342,2026-03-06,3910000,경기도 평택시
평택봄약국,경기도,평택시,경기도 평택시 서동대로 3708 (합정동),경기도 평택시 합정동 0,36.98932995,127.1204389,약국 내부,경기도 평택시청 평택보건소,031-8024-4342,2026-03-06,3910000,경기도 평택시
연약국,경기도,평택시,"경기도 평택시 평택5로 63, 상가동 1층 101-4호 (비전동, 동성효성아파트)",경기도 평택시 비전동 856,36.99188685,127.1105928,약국 내부,경기도 평택시청 평택보건소,031-8024-4342,2026-03-06,3910000,경기도 평택시
고유약국,경기도,평택시,"경기도 평택시 평택로 51, 평택민자역사 (평택동)",경기도 평택시 평택동 185-579,36.99189577,127.0832942,약국 내부,경기도 평택시청 평택보건소,031-8024-4342,2026-03-06,3910000,경기도 평택시
오로라약국,경기도,평택시,"경기도 평택시 상서재로 50, 416동 120호 (동삭동, 평택센트럴자이 4단지)",경기도 평택시 동삭동 854,37.01852351,127.1014953,약국 내부,경기도 평택시청 평택보건소,031-8024-4342,2026-03-06,3910000,경기도 평택시
메디팜고운손약국,경기도,평택시,"경기도 평택시 중앙로 335, 상가동 111,112,208호 (비전동, 벽산아파트)",경기도 평택시 비전동 889,36.99204168,127.1192861,약국 내부,경기도 평택시청 평택보건소,031-8024-4342,2026-03-06,3910000,경기도 평택시
메가타운약국,경기도,평택시,경기도 평택시 만세로 1697 (죽백동),경기도 평택시 죽백동 479-6,37.01444864,127.1139977,약국 내부,경기도 평택시청 평택보건소,031-8024-4342,2026-03-06,3910000,경기도 평택시
별약국,경기도,평택시,경기도 평택시 고덕국제5로 145 (고덕동),경기도 평택시 고덕동 0,37.03466419,127.0267262,,경기도 평택시청 송탄보건소,031-8024-7253,2026-03-06,3910000,경기도 평택시
함박약국,경기도,평택시,경기도 평택시 함박산8길 31 (고덕동),경기도 평택시 고덕동 2647-2,37.03851393,127.0314591,,경기도 평택시청 송탄보건소,031-8024-7253,2026-03-06,3910000,경기도 평택시
삼동약국,경기도,평택시,"경기도 평택시 삼성로 114, 삼성전자(주) 평택캠퍼스 사무3동 2층 (고덕동)",경기도 평택시 고덕동 1695,37.03554574,127.0601488,,경기도 평택시청 송탄보건소,031-8024-7253,2026-03-06,3910000,경기도 평택시
송북약국,경기도,평택시,경기도 평택시 탄현로 334 (지산동),경기도 평택시 지산동 754-38,37.08185853,127.0565354,,경기도 평택시청 송탄보건소,031-8024-7253,2026-03-06,3910000,경기도 평택시
고덕미소약국,경기도,평택시,경기도 평택시 고덕로 246 (고덕동),경기도 평택시 고덕동 2708-1,37.03602939,127.0279094,,경기도 평택시청 송탄보건소,031-8024-7253,2026-03-06,3910000,경기도 평택시
스타약국,경기도,평택시,경기도 평택시 관광특구로 41 (서정동),경기도 평택시 서정동 814-4,37.06697836,127.0634175,,경기도 평택시청 송탄보건소,031-8024-7253,2026-03-06,3910000,경기도 평택시
세계로약국,경기도,평택시,경기도 평택시 고덕여염7길 21 (고덕동),경기도 평택시 고덕동 2224-1,37.03835366,127.0473347,,경기도 평택시청 송탄보건소,031-8024-7253,2026-03-06,3910000,경기도 평택시
온세약국,경기도,평택시,경기도 평택시 탄현로 341 (신장동),경기도 평택시 신장동 212-10,37.08270678,127.0565651,,경기도 평택시청 송탄보건소,031-8024-7253,2026-03-06,3910000,경기도 평택시
도담온누리약국,경기도,평택시,경기도 평택시 고덕국제대로 94 (고덕동),경기도 평택시 고덕동 1973-9,37.04530126,127.0441906,,경기도 평택시청 송탄보건소,031-8024-7253,2026-03-06,3910000,경기도 평택시
송탄메디칼약국,경기도,평택시,경기도 평택시 탄현로327번길 8 (신장동),경기도 평택시 신장동 214-24,37.08155769,127.0555154,,경기도 평택시청 송탄보건소,031-8024-7253,2026-03-06,3910000,경기도 평택시
고덕365약국,경기도,평택시,경기도 평택시 고덕로3길 22 (고덕동),경기도 평택시 고덕동 2693-6,37.03712781,127.0265849,,경기도 평택시청 송탄보건소,031-8024-7253,2026-03-06,3910000,경기도 평택시
맑은미소약국,경기도,평택시,경기도 평택시 함박산9길 3 (고덕동),경기도 평택시 고덕동 2516-4,37.0392192,127.0314269,,경기도 평택시청 송탄보건소,031-8024-7253,2026-03-06,3910000,경기도 평택시
정약국,경기도,평택시,경기도 평택시 관광특구로 38 (서정동),경기도 평택시 서정동 847-5,37.06648733,127.0629759,,경기도 평택시청 송탄보건소,031-8024-7253,2026-03-06,3910000,경기도 평택시
고덕스타약국,경기도,평택시,"경기도 평택시 고덕국제대로 77 (고덕동, 힐스테이트 고덕 센트럴)",경기도 평택시 고덕동 2618-3,37.04407411,127.0424872,,경기도 평택시청 송탄보건소,031-8024-7253,2026-03-06,3910000,경기도 평택시
튼튼약국,경기도,평택시,경기도 평택시 경기대로 1511 (지산동),경기도 평택시 지산동 1080,37.07934206,127.0627311,,경기도 평택시청 송탄보건소,031-8024-7253,2026-03-06,3910000,경기도 평택시
바로E약국,경기도,평택시,경기도 평택시 탄현로371번길 55 (신장동),경기도 평택시 신장동 103,37.08731208,127.0594661,,경기도 평택시청 송탄보건소,031-8024-7253,2026-03-06,3910000,경기도 평택시
서정동 행정복지센터,경기도,평택시,경기도 평택시 탄현로 170 (서정동),경기도 평택시 서정동 831,37.0677688,127.0546908,,경기도 평택시청 송탄보건소,031-8024-7253,2026-03-06,3910000,경기도 평택시
은산보건진료소,경기도,평택시,경기도 평택시 은산3길 26,경기도 평택시 진위면 은산리 308-1,37.08535962,127.1225172,,경기도 평택시청 송탄보건소,031-8024-7253,2026-03-06,3910000,경기도 평택시
진위면보건지소,경기도,평택시,경기도 평택시 봉남길 61,경기도 평택시 진위면 봉남리 230-3,37.09976322,127.0904767,,경기도 평택시청 송탄보건소,031-8024-7253,2026-03-06,3910000,경기도 평택시
진위면 행정복지센터,경기도,평택시,경기도 평택시 봉남길 61,경기도 평택시 진위면 봉남리 230-3,37.09976322,127.0904767,,경기도 평택시청 송탄보건소,031-8024-7253,2026-03-06,3910000,경기도 평택시
동천보건진료소,경기도,평택시,경기도 평택시 동천2길 14,경기도 평택시 진위면 동천리 308-1,37.11873418,127.1089965,,경기도 평택시청 송탄보건소,031-8024-7253,2026-03-06,3910000,경기도 평택시
송북동 행정복지센터,경기도,평택시,경기도 평택시 지산2로 113 (지산동),경기도 평택시 지산동 1011,37.08165063,127.0602332,,경기도 평택시청 송탄보건소,031-8024-7253,2026-03-06,3910000,경기도 평택시
신장1동 행정복지센터,경기도,평택시,경기도 평택시 신장로90번길 63 (신장동),경기도 평택시 신장동 338-55,37.0839629,127.0523885,,경기도 평택시청 송탄보건소,031-8024-7253,2026-03-06,3910000,경기도 평택시
지산동 행정복지센터,경기도,평택시,경기도 평택시 송탄로 379 (지산동),경기도 평택시 지산동 798-4,37.0774061,127.0575823,,경기도 평택시청 송탄보건소,031-8024-7253,2026-03-06,3910000,경기도 평택시
서탄면보건지소,경기도,평택시,경기도 평택시 서탄면 금암1길 94,경기도 평택시 서탄면 금암리 308-1,37.10545814,127.0401594,,경기도 평택시청 송탄보건소,031-8024-7253,2026-03-06,3910000,경기도 평택시
서탄면 행정복지센터,경기도,평택시,경기도 평택시 서탄면 금암1길 94,경기도 평택시 서탄면 금암리 308-1,37.10545814,127.0401594,,경기도 평택시청 송탄보건소,031-8024-7253,2026-03-06,3910000,경기도 평택시
금각보건진료소,경기도,평택시,경기도 평택시 금각1길 6-5,경기도 평택시 서탄면 금각리 440-1,37.07016113,127.0084158,,경기도 평택시청 송탄보건소,031-8024-7253,2026-03-06,3910000,경기도 평택시
중앙동 행정복지센터,경기도,평택시,경기도 평택시 서정역로 16 (이충동),경기도 평택시 서정동 342,37.05555845,127.0560539,,경기도 평택시청 송탄보건소,031-8024-7253,2026-03-06,3910000,경기도 평택시
평택시송탄치매안심센터,경기도,평택시,경기도 평택시 서정로 295 (서정동),경기도 평택시 서정동 산 12,37.0657141,127.0664973,,경기도 평택시청 송탄보건소,031-8024-7253,2026-03-06,3910000,경기도 평택시
송탄보건소,경기도,평택시,경기도 평택시 서정로 295 (서정동),경기도 평택시 서정동 산 12,37.0657141,127.0664973,,경기도 평택시청 송탄보건소,031-8024-7253,2026-03-06,3910000,경기도 평택시
송탄동 행정복지센터,경기도,평택시,경기도 평택시 방여울로 117 (가재동),경기도 평택시 가재동 20-53,37.04440469,127.0948511,,경기도 평택시청 송탄보건소,031-8024-7253,2026-03-06,3910000,경기도 평택시
우성탑약국,경기도,평택시,경기도 평택시 고덕중앙로 218 (고덕동),경기도 평택시 고덕동 1975-1,37.04788911,127.0449574,,경기도 평택시청 송탄보건소,031-8024-7253,2026-03-06,3910000,경기도 평택시
호약국,경기도,평택시,경기도 평택시 이충로35번길 24 (이충동),경기도 평택시 이충동 668-2,37.05962924,127.0664922,,경기도 평택시청 송탄보건소,031-8024-7253,2026-03-06,3910000,경기도 평택시
슬기로운약국,경기도,평택시,경기도 평택시 고덕갈평5길 32 (고덕동),경기도 평택시 고덕동 1886-1,37.05650083,127.0473953,,경기도 평택시청 송탄보건소,031-8024-7253,2026-03-06,3910000,경기도 평택시
고덕우리약국,경기도,평택시,경기도 평택시 고덕중앙로 200-4 (고덕동),경기도 평택시 고덕동 1973-1,37.04782733,127.0441989,,경기도 평택시청 송탄보건소,031-8024-7253,2026-03-06,3910000,경기도 평택시
고덕드림약국,경기도,평택시,경기도 평택시 고덕여염9길 38 (고덕동),경기도 평택시 고덕동 2158-2,37.04015536,127.0509824,,경기도 평택시청 송탄보건소,031-8024-7253,2026-03-06,3910000,경기도 평택시
서정부부약국,경기도,평택시,경기도 평택시 서정역로 48 (서정동),경기도 평택시 서정동 311,37.0582931,127.0553248,,경기도 평택시청 송탄보건소,031-8024-7253,2026-03-06,3910000,경기도 평택시
4층새빛약국,경기도,평택시,경기도 평택시 신촌2로 22 (칠원동),경기도 평택시 칠원동 549,37.02604709,127.1040567,,경기도 평택시청 송탄보건소,031-8024-7253,2026-03-06,3910000,경기도 평택시
평택백화점약국,경기도,평택시,경기도 평택시 진위면 진위서로 142,경기도 평택시 진위면 견산리 319-1,37.10600509,127.0786469,,경기도 평택시청 송탄보건소,031-8024-7253,2026-03-06,3910000,경기도 평택시
기분좋은온누리약국,경기도,평택시,경기도 평택시 고덕중앙2로 39 (고덕동),경기도 평택시 고덕동 2613-1,37.04519809,127.0402928,,경기도 평택시청 송탄보건소,031-8024-7253,2026-03-06,3910000,경기도 평택시
시드니약국,경기도,평택시,경기도 평택시 탄현1로 160 (신장동),경기도 평택시 신장동 259-3,37.07411104,127.0540061,,경기도 평택시청 송탄보건소,031-8024-7253,2026-03-06,3910000,경기도 평택시
플러스약국,경기도,평택시,경기도 평택시 경기대로 1103 (장당동),경기도 평택시 장당동 390-1,37.04499376,127.0594719,,경기도 평택시청 송탄보건소,031-8024-7253,2026-03-06,3910000,경기도 평택시
삼성메디컬약국,경기도,평택시,경기도 평택시 고덕갈평6길 29 (고덕동),경기도 평택시 고덕동 1887-1,37.05732015,127.0474254,,경기도 평택시청 송탄보건소,031-8024-7253,2026-03-06,3910000,경기도 평택시
휴베이스효약국,경기도,평택시,경기도 평택시 고덕국제대로 7 (고덕동),경기도 평택시 고덕동 2226-2,37.03887765,127.0482003,,경기도 평택시청 송탄보건소,031-8024-7253,2026-03-06,3910000,경기도 평택시
제일큰약국,경기도,평택시,경기도 평택시 고덕여염9길 13 (고덕동),경기도 평택시 고덕동 2161-1,37.03971839,127.0491895,,경기도 평택시청 송탄보건소,031-8024-7253,2026-03-06,3910000,경기도 평택시
이메디칼약국,경기도,평택시,"경기도 평택시 고덕로 250, 1층 109호 (고덕동)",경기도 평택시 고덕동 2708-2,37.03617919,127.028134,,경기도 평택시청 송탄보건소,031-8024-7253,2026-03-06,3910000,경기도 평택시
서정약국,경기도,평택시,경기도 평택시 고덕로3길 27 (고덕동),경기도 평택시 고덕동 2691-1,37.03820635,127.0264148,,경기도 평택시청 송탄보건소,031-8024-7253,2026-03-06,3910000,경기도 평택시
상록수 약국,경기도,평택시,경기도 평택시 서정역로 42 (서정동),경기도 평택시 서정동 328-2,37.05791958,127.0557716,,경기도 평택시청 송탄보건소,031-8024-7253,2026-03-06,3910000,경기도 평택시
청북솔약국,경기도,평택시,"경기도 평택시 서정역로 47, 1층 (서정동)",경기도 평택시 서정동 313-21,37.05818669,127.0549287,,경기도 평택시청 송탄보건소,031-8024-7253,2026-03-06,3910000,경기도 평택시
새봄약국,경기도,평택시,경기도 평택시 서정역로26번길 7-10 (이충동),경기도 평택시 이충동 463-45,37.05671565,127.0563467,,경기도 평택시청 송탄보건소,031-8024-7253,2026-03-06,3910000,경기도 평택시
세림약국,경기도,평택시,경기도 평택시 송탄로 272 (서정동),경기도 평택시 서정동 822-10,37.0679674,127.0591871,,경기도 평택시청 송탄보건소,031-8024-7253,2026-03-06,3910000,경기도 평택시
송탄종합약국,경기도,평택시,경기도 평택시 탄현로 330 (지산동),경기도 평택시 지산동 755-6,37.08156837,127.0563638,,경기도 평택시청 송탄보건소,031-8024-7253,2026-03-06,3910000,경기도 평택시
이수약국,경기도,평택시,경기도 평택시 송탄로40번길 67 (이충동),경기도 평택시 이충동 614-5,37.05139679,127.0580218,,경기도 평택시청 송탄보건소,031-8024-7253,2026-03-06,3910000,경기도 평택시
약수약국,경기도,평택시,경기도 평택시 송탄로 413 (지산동),경기도 평택시 지산동 758-22,37.08065173,127.0576415,,경기도 평택시청 송탄보건소,031-8024-7253,2026-03-06,3910000,경기도 평택시
늘봄약국,경기도,평택시,경기도 평택시 오좌동길 9 (독곡동),경기도 평택시 독곡동 378-1,37.08784476,127.0633452,,경기도 평택시청 송탄보건소,031-8024-7253,2026-03-06,3910000,경기도 평택시
스마일약국,경기도,평택시,"경기도 평택시 송탄로 33 (장당동, 굿스파인병원)",경기도 평택시 장당동 470-4,37.04826398,127.057004,,경기도 평택시청 송탄보건소,031-8024-7253,2026-03-06,3910000,경기도 평택시
힐링약국,경기도,평택시,"경기도 평택시 삼성로 114, 삼성전자(주) 평택캠퍼스 복지동 1층 (고덕동)",경기도 평택시 고덕동 1695,37.03554574,127.0601488,,경기도 평택시청 송탄보건소,031-8024-7253,2026-03-06,3910000,경기도 평택시
이화약국,경기도,평택시,경기도 평택시 탄현로326번길 3 (지산동),경기도 평택시 지산동 755-10,37.08124079,127.056077,,경기도 평택시청 송탄보건소,031-8024-7253,2026-03-06,3910000,경기도 평택시
송탄우리약국,경기도,평택시,"경기도 평택시 경기대로 1365, 1층 (서정동, 한양빌딩)",경기도 평택시 서정동 814-3,37.06697337,127.0636596,,경기도 평택시청 송탄보건소,031-8024-7253,2026-03-06,3910000,경기도 평택시
송탄시장약국,경기도,평택시,경기도 평택시 서정역로 22 (서정동),경기도 평택시 서정동 340-1,37.05606812,127.0558152,,경기도 평택시청 송탄보건소,031-8024-7253,2026-03-06,3910000,경기도 평택시
센타약국,경기도,평택시,"경기도 평택시 이충로35번길 20-9, 이충센타프라자 (이충동)",경기도 평택시 이충동 664-8,37.06035084,127.0664705,,경기도 평택시청 송탄보건소,031-8024-7253,2026-03-06,3910000,경기도 평택시
송탄효자약국,경기도,평택시,경기도 평택시 탄현로 317 (신장동),경기도 평택시 신장동 217-3,37.08074296,127.0552737,,경기도 평택시청 송탄보건소,031-8024-7253,2026-03-06,3910000,경기도 평택시
하나약국,경기도,평택시,"경기도 평택시 서정북로 79, 신광빌딩 (서정동)",경기도 평택시 서정동 782-7,37.07100089,127.0582146,,경기도 평택시청 송탄보건소,031-8024-7253,2026-03-06,3910000,경기도 평택시
사랑약국,경기도,평택시,"경기도 평택시 추담로 58-78, 상가2동 104호 (장안동, 평택장안마을코오롱하늘채)",경기도 평택시 장안동 619,37.05902947,127.0770985,,경기도 평택시청 송탄보건소,031-8024-7253,2026-03-06,3910000,경기도 평택시
서정온누리약국,경기도,평택시,"경기도 평택시 탄현로 58, 103호 (서정동)",경기도 평택시 서정동 317-41,37.05761955,127.0539586,,경기도 평택시청 송탄보건소,031-8024-7253,2026-03-06,3910000,경기도 평택시
꽃피는약국,경기도,평택시,"경기도 평택시 송탄로40번길 79-16, 103호 (이충동)",경기도 평택시 이충동 610-1,37.05209836,127.0573064,,경기도 평택시청 송탄보건소,031-8024-7253,2026-03-06,3910000,경기도 평택시
고덕중앙약국,경기도,평택시,"경기도 평택시 고덕면 궁2길 67, 103호",경기도 평택시 고덕면 궁리 72-11,37.01835866,127.0346038,,경기도 평택시청 송탄보건소,031-8024-7253,2026-03-06,3910000,경기도 평택시
서정리오렌지약국,경기도,평택시,"경기도 평택시 탄현로 48, 1층 2호 (서정동)",경기도 평택시 서정동 429-3,37.05678601,127.0538499,,경기도 평택시청 송탄보건소,031-8024-7253,2026-03-06,3910000,경기도 평택시
일등약국,경기도,평택시,경기도 평택시 탄현로 333 (신장동),경기도 평택시 신장동 213-3,37.08193548,127.0561518,,경기도 평택시청 송탄보건소,031-8024-7253,2026-03-06,3910000,경기도 평택시
송탄하늘약국,경기도,평택시,"경기도 평택시 송탄로 410, 1층 (지산동)",경기도 평택시 지산동 761-12,37.0801343,127.0580762,,경기도 평택시청 송탄보건소,031-8024-7253,2026-03-06,3910000,경기도 평택시
우미약국,경기도,평택시,"경기도 평택시 송탄로 260, 2층 (서정동)",경기도 평택시 서정동 839-11,37.06678335,127.058917,,경기도 평택시청 송탄보건소,031-8024-7253,2026-03-06,3910000,경기도 평택시
세민약국,경기도,평택시,"경기도 평택시 탄현로 335, 1층 (신장동)",경기도 평택시 신장동 212-6,37.08234753,127.0563476,,경기도 평택시청 송탄보건소,031-8024-7253,2026-03-06,3910000,경기도 평택시
예그리나 약국,경기도,평택시,"경기도 평택시 신촌2로 22, 맘스스퀘어 B동 3층 305호 (칠원동)",경기도 평택시 칠원동 549,37.02604709,127.1040567,,경기도 평택시청 송탄보건소,031-8024-7253,2026-03-06,3910000,경기도 평택시
송탄드림약국,경기도,평택시,"경기도 평택시 지산로 64, 1층 (지산동)",경기도 평택시 지산동 1077,37.07967968,127.062061,,경기도 평택시청 송탄보건소,031-8024-7253,2026-03-06,3910000,경기도 평택시
새희망약국,경기도,평택시,"경기도 평택시 서정역로26번길 3, 대성빌딩 1층 (서정동)",경기도 평택시 서정동 334-4,37.05645778,127.0559225,,경기도 평택시청 송탄보건소,031-8024-7253,2026-03-06,3910000,경기도 평택시
아나파약국,경기도,평택시,경기도 평택시 탄현로 328 (지산동),경기도 평택시 지산동 755-7,37.08150209,127.0562824,,경기도 평택시청 송탄보건소,031-8024-7253,2026-03-06,3910000,경기도 평택시
중앙약국,경기도,평택시,경기도 평택시 신장로 27 (신장동),경기도 평택시 신장동 274-113,37.07907353,127.0515301,,경기도 평택시청 송탄보건소,031-8024-7253,2026-03-06,3910000,경기도 평택시
유미약국,경기도,평택시,경기도 평택시 지산로 62 (지산동),경기도 평택시 지산동 1076,37.07966366,127.0618476,,경기도 평택시청 송탄보건소,031-8024-7253,2026-03-06,3910000,경기도 평택시
서정굿모닝약국,경기도,평택시,경기도 평택시 서정역로36번길 10 (서정동),경기도 평택시 서정동 271-5,37.05736842,127.0564609,,경기도 평택시청 송탄보건소,031-8024-7253,2026-03-06,3910000,경기도 평택시
삼성약국,경기도,평택시,경기도 평택시 관광특구로 37 (서정동),경기도 평택시 서정동 817-5,37.06705886,127.063023,,경기도 평택시청 송탄보건소,031-8024-7253,2026-03-06,3910000,경기도 평택시
유일약국,경기도,평택시,"경기도 평택시 지산로 85 (독곡동, 우남빌딩)",경기도 평택시 독곡동 488,37.08062229,127.0642639,,경기도 평택시청 송탄보건소,031-8024-7253,2026-03-06,3910000,경기도 평택시
수약국,경기도,평택시,경기도 평택시 탄현로327번길 6 (신장동),경기도 평택시 신장동 214-39,37.0815932,127.0556792,,경기도 평택시청 송탄보건소,031-8024-7253,2026-03-06,3910000,경기도 평택시
고덕메디칼약국,경기도,평택시,"경기도 평택시 고덕면 동청1길 35, 102호",경기도 평택시 고덕면 동청리 25-3,37.05501836,127.006249,,경기도 평택시청 송탄보건소,031-8024-7253,2026-03-06,3910000,경기도 평택시
다나약국,경기도,평택시,"경기도 평택시 지산로 70, 1층 101호 (지산동, 부천프라자)",경기도 평택시 지산동 1078,37.07977502,127.0623845,,경기도 평택시청 송탄보건소,031-8024-7253,2026-03-06,3910000,경기도 평택시
송탄온누리약국,경기도,평택시,경기도 평택시  서정북로  71 (서정동),경기도 평택시 서정동 782-4,37.07082079,127.057424,,경기도 평택시청 송탄보건소,031-8024-7253,2026-03-06,3910000,경기도 평택시
세명약국,경기도,평택시,경기도 평택시 서탄면 발안로 1226,경기도 평택시 서탄면 수월암리 215-13,37.13619668,127.0359353,,경기도 평택시청 송탄보건소,031-8024-7253,2026-03-06,3910000,경기도 평택시
녹십자약국,경기도,평택시,경기도 평택시 탄현로 322 (지산동),경기도 평택시 지산동 763-5,37.08096201,127.0560515,,경기도 평택시청 송탄보건소,031-8024-7253,2026-03-06,3910000,경기도 평택시
석산보건진료소,대구광역시,군위군,대구광역시 군위군 삼국유사면 삼국유사로 1328-4,,36.1748017,128.8560640,,대구광역시 군위군청,,2025-12-19,5141000,대구광역시 군위군
삼산보건진료소,대구광역시,군위군,대구광역시 군위군 산성면 범상길 57,,36.0937987,128.7054419,,대구광역시 군위군청,,2025-12-19,5141000,대구광역시 군위군
연계보건진료소,대구광역시,군위군,대구광역시 군위군 의흥면 연계지호길 4,,36.1625379,128.7488883,,대구광역시 군위군청,,2025-12-19,5141000,대구광역시 군위군
문덕보건진료소,대구광역시,군위군,대구광역시 군위군 우보면 철길로 201,,36.1483677,128.6864012,,대구광역시 군위군청,,2025-12-19,5141000,대구광역시 군위군
대율보건진료소,대구광역시,군위군,대구광역시 군위군 부계면 한티로 2146-1,,36.0602384,128.6555322,,대구광역시 군위군청,,2025-12-19,5141000,대구광역시 군위군
고곡보건진료소,대구광역시,군위군,대구광역시 군위군 효령면 용매로 997-5,,36.0798172,128.5904371,,대구광역시 군위군청,,2025-12-19,5141000,대구광역시 군위군
오천보건진료소,대구광역시,군위군,대구광역시 군위군 효령면 오천1길 4,,36.1879244,128.6058133,,대구광역시 군위군청,,2025-12-19,5141000,대구광역시 군위군
화계보건진료소,대구광역시,군위군,대구광역시 군위군 효령면 소계길 16,,36.1175988,128.6334566,,대구광역시 군위군청,,2025-12-19,5141000,대구광역시 군위군
복성보건진료소,대구광역시,군위군,대구광역시 군위군 소보면 안계로 524,,36.2624466,128.4768766,,대구광역시 군위군청,,2025-12-19,5141000,대구광역시 군위군
용대보건진료소,대구광역시,군위군,대구광역시 군위군 군위읍 용대2길 16,,36.2312558,128.6012484,,대구광역시 군위군청,,2025-12-19,5141000,대구광역시 군위군
삼국유사면보건지소,대구광역시,군위군,대구광역시 군위군 삼국유사면 삼국유사로 448,,36.1234914,128.7947921,,대구광역시 군위군청,,2025-12-19,5141000,대구광역시 군위군
산성면보건지소,대구광역시,군위군,대구광역시 군위군 산성면 산성가음로 651,,36.1216703,128.6939381,,대구광역시 군위군청,,2025-12-19,5141000,대구광역시 군위군
의흥면보건지소,대구광역시,군위군,대구광역시 군위군 의흥면 읍내길 25,,36.1762535,128.7138945,,대구광역시 군위군청,,2025-12-19,5141000,대구광역시 군위군
우보면보건지소,대구광역시,군위군,대구광역시 군위군 우보면 이화길 135-1,,36.1963138,128.6645383,,대구광역시 군위군청,,2025-12-19,5141000,대구광역시 군위군
부계면보건지소,대구광역시,군위군,대구광역시 군위군 부계면 창평길 3-1,,36.1005115,128.6644262,,대구광역시 군위군청,,2025-12-19,5141000,대구광역시 군위군
효령면보건지소,대구광역시,군위군,대구광역시 군위군 효령면 치산효령로 2402,,36.1567895,128.5849888,,대구광역시 군위군청,,2025-12-19,5141000,대구광역시 군위군
소보면보건지소,대구광역시,군위군,대구광역시 군위군 소보면 송백로 1415,,36.2550811,128.4749691,,대구광역시 군위군청,,2025-12-19,5141000,대구광역시 군위군
군위군보건소,대구광역시,군위군,대구광역시 군위군 군위읍 군청로 70,,36.2296706,128.5698968,보건소내1층,대구광역시 군위군청,,2025-12-19,5141000,대구광역시 군위군
덕화약국,대구광역시,군위군,대구광역시 군위군 효령면 치산효령로 2385,,36.1531624,128.5819381,,대구광역시 군위군청,,2025-12-19,5141000,대구광역시 군위군
정다운약국,대구광역시,군위군,대구광역시 군위군 우보면 이화길 133,,36.1958711,128.6646179,,대구광역시 군위군청,,2025-12-19,5141000,대구광역시 군위군
화성약국,대구광역시,군위군,대구광역시 군위군 군위읍 동서1길 17-9,,36.2374147,128.5675488,,대구광역시 군위군청,,2025-12-19,5141000,대구광역시 군위군
백세약국,대구광역시,군위군,대구광역시 군위군 군위읍 중앙길 72,,36.2346783,128.5666378,,대구광역시 군위군청,,2025-12-19,5141000,대구광역시 군위군
우리약국,대구광역시,군위군,대구광역시 군위군 군위읍 동서길 37,,36.2361890,128.5661896,,대구광역시 군위군청,,2025-12-19,5141000,대구광역시 군위군
대구약국,대구광역시,군위군,대구광역시 군위군 군위읍 중앙길 88,,36.2361974,128.5669239,,대구광역시 군위군청,,2025-12-19,5141000,대구광역시 군위군
경북약국,대구광역시,군위군,대구광역시 군위군 군위읍 중앙길 89,,36.2363103,128.5665591,,대구광역시 군위군청,,2025-12-19,5141000,대구광역시 군위군
연무읍사무소,충청남도,논산시,충청남도 논산시 연무읍 안심로 50,충청남도 논산시 연무읍 마산리 700-1,36.1251239777,127.0990304969,,충청남도 논산시 자원순환과,041-746-5535,2025-12-22,4540000,충청남도 논산시
내동 모닝빌,충청남도,논산시,충청남도 논산시 체육로 13,충청남도 논산시 내동 1262,36.1885400561,127.0965768273,,충청남도 논산시 자원순환과,041-746-5535,2025-12-22,4540000,충청남도 논산시
논산시보건소,충청남도,논산시,충청남도 논산시 논산대로 382,충청남도 논산시 관촉동 327-2,36.196077385,127.1035647351,,충청남도 논산시 자원순환과,041-746-5535,2025-12-22,4540000,충청남도 논산시
골든타워,충청남도,논산시,충청남도 논산시 논산대로 344,충청남도 논산시 취암동 103-1,36.1934845014,127.0988407934,,충청남도 논산시 자원순환과,041-746-5535,2025-12-22,4540000,충청남도 논산시
힐스테이트자이논산아파트,충청남도,논산시,충청남도 논산시 시민로132번길 7,충청남도 논산시 내동 1105,36.1806521461,127.102768619,,충청남도 논산시 자원순환과,041-746-5535,2025-12-22,4540000,충청남도 논산시
논산시청,충청남도,논산시,충청남도 논산시 시민로210번길 9,충청남도 논산시 내동 824,36.18755728,127.0982527794,,충청남도 논산시 자원순환과,041-746-5535,2025-12-22,4540000,충청남도 논산시
지속가능발전협의회,충청남도,논산시,충청남도 논산시 체육로 110,충청남도 논산시 관촉동 19-1,36.1949865357,127.1019223385,,충청남도 논산시 자원순환과,041-746-5535,2025-12-22,4540000,충청남도 논산시
참사랑아파트,충청남도,논산시,충청남도 논산시 중앙로 266,충청남도 논산시 취암동 83-1,36.1913592898,127.0989010302,,충청남도 논산시 자원순환과,041-746-5535,2025-12-22,4540000,충청남도 논산시
취암주공2단지,충청남도,논산시,충청남도 논산시 논산대로348번길 7,충청남도 논산시 취암동 95,36.1942871667,127.1003635402,,충청남도 논산시 자원순환과,041-746-5535,2025-12-22,4540000,충청남도 논산시
취암주공1단지,충청남도,논산시,충청남도 논산시 중앙로260번길 59-5,충청남도 논산시 취암동 80,36.1912920194,127.1007864211,,충청남도 논산시 자원순환과,041-746-5535,2025-12-22,4540000,충청남도 논산시
내동LH2단지,충청남도,논산시,충청남도 논산시 대학로65번길 19,충청남도 논산시 내동 1109,36.1801952536,127.1038951016,,충청남도 논산시 자원순환과,041-746-5535,2025-12-22,4540000,충청남도 논산시
LH리벤하임,충청남도,논산시,충청남도 논산시 대학로65번길 46,충청남도 논산시 내동 1113,36.1826838866,127.1031159994,,충청남도 논산시 자원순환과,041-746-5535,2025-12-22,4540000,충청남도 논산시
제이파크1단지,충청남도,논산시,충청남도 논산시 시민로258번길 9,충청남도 논산시 내동 272,36.1911846374,127.0960218481,,충청남도 논산시 자원순환과,041-746-5535,2025-12-22,4540000,충청남도 논산시
개나리아파트,충청남도,논산시,충청남도 논산시 시민로222번길 7,충청남도 논산시 내동 967,36.1871466091,127.097138317,,충청남도 논산시 자원순환과,041-746-5535,2025-12-22,4540000,충청남도 논산시
강산동신아파트,충청남도,논산시,충청남도 논산시 시민로307번길 19,충청남도 논산시 강산동 645,36.1917511539,127.0892422811,,충청남도 논산시 자원순환과,041-746-5535,2025-12-22,4540000,충청남도 논산시
동신아파트,충청남도,논산시,충청남도 논산시 체육로 48-6,충청남도 논산시 내동 535,36.1892856704,127.1007828498,,충청남도 논산시 자원순환과,041-746-5535,2025-12-22,4540000,충청남도 논산시
세미클래식아파트,충청남도,논산시,충청남도 논산시 체육로 39,충청남도 논산시 취암동 79,36.190036318,127.0997738825,,충청남도 논산시 자원순환과,041-746-5535,2025-12-22,4540000,충청남도 논산시
강산청솔아파트,충청남도,논산시,충청남도 논산시 논산대로 269-19,충청남도 논산시 강산동 698,36.1913189013,127.0903698078,,충청남도 논산시 자원순환과,041-746-5535,2025-12-22,4540000,충청남도 논산시
대림아파트,충청남도,논산시,충청남도 논산시 대림길 7,충청남도 논산시 부창동 209-4,36.1987310356,127.0838030534,,충청남도 논산시 자원순환과,041-746-5535,2025-12-22,4540000,충청남도 논산시
조흥로즈빌,충청남도,논산시,충청남도 논산시 해월로259번길 14,충청남도 논산시 화지동 16,36.2111924848,127.0940194344,,충청남도 논산시 자원순환과,041-746-5535,2025-12-22,4540000,충청남도 논산시
취암리슈빌,충청남도,논산시,충청남도 논산시 번영로29번길 10,충청남도 논산시 취암동 1081,36.1993990449,127.094062816,,충청남도 논산시 자원순환과,041-746-5535,2025-12-22,4540000,충청남도 논산시
두산아파트,충청남도,논산시,충청남도 논산시 대화로96번길 21,충청남도 논산시 대교동 240,36.2083144038,127.0878557045,,충청남도 논산시 자원순환과,041-746-5535,2025-12-22,4540000,충청남도 논산시
논산대교휴먼시아,충청남도,논산시,충청남도 논산시 대화로 143,충청남도 논산시 대교동 330,36.2124422205,127.0914090894,,충청남도 논산시 자원순환과,041-746-5535,2025-12-22,4540000,충청남도 논산시
논산대교코아루,충청남도,논산시,충청남도 논산시 대화로133번길 13,충청남도 논산시 대교동 336,36.2120151146,127.0895367433,,충청남도 논산시 자원순환과,041-746-5535,2025-12-22,4540000,충청남도 논산시
인터불고코아루,충청남도,논산시,충청남도 논산시 대화로119번길 11,충청남도 논산시 대교동 340,36.2107209817,127.0875983949,,충청남도 논산시 자원순환과,041-746-5535,2025-12-22,4540000,충청남도 논산시
연무기산아파트,충청남도,논산시,충청남도 논산시 연무읍 동안로 870,충청남도 논산시 연무읍 동산리 903-17,36.1340530858,127.1011142415,,충청남도 논산시 자원순환과,041-746-5535,2025-12-22,4540000,충청남도 논산시
월야아파트,충청남도,논산시,충청남도 논산시 연무읍 안심로 250,충청남도 논산시 연무읍 안심리 1065-34,36.1425857857,127.1024692841,,충청남도 논산시 자원순환과,041-746-5535,2025-12-22,4540000,충청남도 논산시
금강빌리지,충청남도,논산시,충청남도 논산시 강경읍 동안로 96,충청남도 논산시 강경읍 산양리 249-2,36.1514054195,127.0223833426,,충청남도 논산시 자원순환과,041-746-5535,2025-12-22,4540000,충청남도 논산시
미주아파트,충청남도,논산시,충청남도 논산시 강경읍 잣디길 13-2,충청남도 논산시 강경읍 산양리 255-3,36.1523179345,127.0195891799,,충청남도 논산시 자원순환과,041-746-5535,2025-12-22,4540000,충청남도 논산시
강경보성아파트,충청남도,논산시,충청남도 논산시 강경읍 금백로 86,충청남도 논산시 강경읍 황산리 11-2,36.1604897415,127.0121617262,,충청남도 논산시 자원순환과,041-746-5535,2025-12-22,4540000,충청남도 논산시
취암동사무소,충청남도,논산시,충청남도 논산시 시민로 389,충청남도 논산시 부창동 37-15,36.1996245149,127.0870494269,,충청남도 논산시 자원순환과,041-746-5535,2025-12-22,4540000,충청남도 논산시
클래시움아파트,충청남도,논산시,충청남도 논산시 강경읍 금백로 74,충청남도 논산시 강경읍 황산리 14-9,36.159711711,127.0131672568,,충청남도 논산시 자원순환과,041-746-5535,2025-12-22,4540000,충청남도 논산시
강경백조아파트,충청남도,논산시,충청남도 논산시 강경읍 금백로 165,충청남도 논산시 강경읍 동흥리 100-1,36.1658853255,127.0169792587,,충청남도 논산시 자원순환과,041-746-5535,2025-12-22,4540000,충청남도 논산시
강경조흥아파트,충청남도,논산시,충청남도 논산시 강경읍 대흥로5번길 37,충청남도 논산시 강경읍 대흥리 35,36.1526636965,127.0124143249,,충청남도 논산시 자원순환과,041-746-5535,2025-12-22,4540000,충청남도 논산시
부영아파트,충청남도,논산시,충청남도 논산시 시민로307번길 28,충청남도 논산시 강산동 643,36.1933908896,127.087664587,,충청남도 논산시 자원순환과,041-746-5535,2025-12-22,4540000,충청남도 논산시
놀뫼아파트,충청남도,논산시,충청남도 논산시 체육로 30,충청남도 논산시 내동 969,36.1890475113,127.099563174,,충청남도 논산시 자원순환과,041-746-5535,2025-12-22,4540000,충청남도 논산시
단골약국,충청남도,논산시,충청남도 논산시 연무읍 안심로 33,충청남도 논산시 연무읍 안심리 78,36.1243683038,127.0976097829,,충청남도 논산시 자원순환과,041-746-5535,2025-12-22,4540000,충청남도 논산시
연무태평양약국,충청남도,논산시,충청남도 논산시 연무읍 안심로110번길 2,충청남도 논산시 연무읍 동산리 897-9,36.1307286048,127.0999267256,,충청남도 논산시 자원순환과,041-746-5535,2025-12-22,4540000,충청남도 논산시
주원약국,충청남도,논산시,충청남도 논산시 연무읍 연무로139번길 23,충청남도 논산시 연무읍 안심리 1-209,36.1330962886,127.0946935353,,충청남도 논산시 자원순환과,041-746-5535,2025-12-22,4540000,충청남도 논산시
수약국,충청남도,논산시,충청남도 논산시 강경읍 계백로 115,충청남도 논산시 강경읍 대흥리 16-10,36.1556695563,127.0135928688,,충청남도 논산시 자원순환과,041-746-5535,2025-12-22,4540000,충청남도 논산시
우리약국,충청남도,논산시,충청남도 논산시 강경읍 계백로 116,충청남도 논산시 강경읍 대흥리 16-20,36.1553861865,127.0138480804,,충청남도 논산시 자원순환과,041-746-5535,2025-12-22,4540000,충청남도 논산시
백세약국,충청남도,논산시,충청남도 논산시 강경읍 계백로 152-1,충청남도 논산시 강경읍 대흥리 23-9,36.1575243521,127.017001349,,충청남도 논산시 자원순환과,041-746-5535,2025-12-22,4540000,충청남도 논산시
옵티마강경제일약국,충청남도,논산시,충청남도 논산시 강경읍 계백로 154,충청남도 논산시 강경읍 대흥리 23-5,36.1576394266,127.0170717197,,충청남도 논산시 자원순환과,041-746-5535,2025-12-22,4540000,충청남도 논산시
솔약국,충청남도,논산시,충청남도 논산시 강경읍 계백로 155,충청남도 논산시 강경읍 대흥리 2-1,36.1580215413,127.017060356,,충청남도 논산시 자원순환과,041-746-5535,2025-12-22,4540000,충청남도 논산시
인삼당약국,충청남도,논산시,충청남도 논산시 강경읍 대흥로 27,충청남도 논산시 강경읍 대흥리 15-2,36.1561469455,127.0134317032,,충청남도 논산시 자원순환과,041-746-5535,2025-12-22,4540000,충청남도 논산시
모자약국,충청남도,논산시,충청남도 논산시 강경읍 옥녀봉로51번길 5,충청남도 논산시 강경읍 중앙리 30-6,36.1625141173,127.0160762034,,충청남도 논산시 자원순환과,041-746-5535,2025-12-22,4540000,충청남도 논산시
효약국,충청남도,논산시,충청남도 논산시 강경읍 황산길 8,충청남도 논산시 강경읍 황산리 36-2,36.1562641991,127.0125442466,,충청남도 논산시 자원순환과,041-746-5535,2025-12-22,4540000,충청남도 논산시
부창약국,충청남도,논산시,충청남도 논산시 체육로 33,충청남도 논산시 내동 382-2,36.1894387308,127.0994469346,,충청남도 논산시 자원순환과,041-746-5535,2025-12-22,4540000,충청남도 논산시
메가약국,충청남도,논산시,충청남도 논산시 중앙로 255,충청남도 논산시 내동 382-32,36.1897726881,127.099156186,,충청남도 논산시 자원순환과,041-746-5535,2025-12-22,4540000,충청남도 논산시
푸른약국,충청남도,논산시,충청남도 논산시 중앙로 258,충청남도 논산시 취암동 83-2,36.1903323183,127.099395144,,충청남도 논산시 자원순환과,041-746-5535,2025-12-22,4540000,충청남도 논산시
논산드림약국,충청남도,논산시,충청남도 논산시 중앙로 274,충청남도 논산시 취암동 103-28,36.1915559545,127.0983274835,,충청남도 논산시 자원순환과,041-746-5535,2025-12-22,4540000,충청남도 논산시
은혜약국,충청남도,논산시,충청남도 논산시 중앙로 423-1,충청남도 논산시 취암동 176-6,36.201585413,127.0872144957,,충청남도 논산시 자원순환과,041-746-5535,2025-12-22,4540000,충청남도 논산시
논산오거리약국,충청남도,논산시,충청남도 논산시 중앙로 424,충청남도 논산시 취암동 1046-6,36.2016929099,127.0877304401,,충청남도 논산시 자원순환과,041-746-5535,2025-12-22,4540000,충청남도 논산시
새보건약국,충청남도,논산시,충청남도 논산시 중앙로 426,충청남도 논산시 취암동 1046-7,36.2017717702,127.0876005431,,충청남도 논산시 자원순환과,041-746-5535,2025-12-22,4540000,충청남도 논산시
반월약국,충청남도,논산시,충청남도 논산시 중앙로 461,충청남도 논산시 반월동 113-1,36.2043630011,127.0848450786,,충청남도 논산시 자원순환과,041-746-5535,2025-12-22,4540000,충청남도 논산시
강산약국,충청남도,논산시,충청남도 논산시 중앙로 472,충청남도 논산시 반월동 67-4,36.2051671059,127.0845171337,,충청남도 논산시 자원순환과,041-746-5535,2025-12-22,4540000,충청남도 논산시
푸른솔약국,충청남도,논산시,충청남도 논산시 중앙로 483,충청남도 논산시 화지동 106-2,36.2058685102,127.0834921874,,충청남도 논산시 자원순환과,041-746-5535,2025-12-22,4540000,충청남도 논산시
현대약국,충청남도,논산시,충청남도 논산시 중앙로 487-1,충청남도 논산시 화지동 101-6,36.2063065786,127.083112572,,충청남도 논산시 자원순환과,041-746-5535,2025-12-22,4540000,충청남도 논산시
논산온누리약국,충청남도,논산시,충청남도 논산시 중앙로 494,충청남도 논산시 화지동 91-9,36.2068440969,127.0831829743,,충청남도 논산시 자원순환과,041-746-5535,2025-12-22,4540000,충청남도 논산시
수정약국,충청남도,논산시,충청남도 논산시 중앙로 498,충청남도 논산시 화지동 87-123,36.207112146,127.083007783,,충청남도 논산시 자원순환과,041-746-5535,2025-12-22,4540000,충청남도 논산시
