재활용센터명,재활용센터운영구분,소재지도로명주소,소재지지번주소,위도,경도,면적,설립연월,차량보유대수,주요취급품목정보,운영기관명,운영기관전화번호,운영기관대표자명,평일운영시작시각,평일운영종료시각,공휴일운영시작시각,공휴일운영종료시각,휴무일정보,애프터서비스정보,홈페이지주소,관리기관전화번호,관리기관명,데이터기준일자,제공기관코드,제공기관명
통영시 재활용품 상설판매장(운영중단),위탁,경상남도 통영시 동충1길 4(항남동),경상남도 통영시 항남동 151-54,34.83982251,128.4221417,263,2021-05,1,의류+가방+신발+재활용비누+장난감+잡화 등,통영YWCA,055-646-2548,원필숙,09:00,18:00,09:00,18:00,공휴일,,http://tyywca.or.kr,055-650-1313,경상남도 통영시청,2026-05-07,5330000,경상남도 통영시
구미시 재활용품 전시판매장,위탁,경상북도 구미시 신시로10길 118,경상북도 구미시 송정동 492-7,36.114273,128.351282,626.7,1996-01,1,가전+가구,(사)한국생활자원 재활용협의회,054-455-3272,이석현,09:00,18:00,09:00,18:00,연중무휴,판매일로부터 3개월이내 무상수리,,054-480-5222,경상북도 구미시청,2026-04-14,5080000,경상북도 구미시
장흥군그린환경센터,위탁,전라남도 장흥군 부산면 덕정길 206,전라남도 장흥군 부산면 부춘리 95,34.70880038,126.9210733,480,2011-12,2,종이+필름+플라스틱+캔+병+발포합성수지류,장흥지역자활센터,061-862-8266,위수미,09:00,18:00,00:00,00:00,토+일+공휴일,,www.jangheung.go.kr,061-860-7834,전라남도 장흥군청,2026-04-14,5860000,전남광주통합특별시 장흥군
진천·음성 광역폐기물 재활용선별시설,위탁,충청북도 음성군 맹동면 원중로 778,충청북도 음성군 맹동면 통동리 산 20,36.89169028,127.5886355,1886.13,2023-01,3,철캔+알루미늄캔+병+플라스틱+폐지+스티로폼+필름,명민산업㈜,043-870-4220,오현숙,08:00,17:00,00:00,00:00,일+공휴일,,,043-539-7722,충청북도 진천군청 식산업자원과,2026-06-26,4450000,충청북도 진천군
가평군재활용선별장,직영,경기도 가평군 가평읍 경춘로 1639-50,,37.793407,127.466351,6933,2025-01,5,"알루미늄캔+양은+스텐레스+투명페트병+혼합페트병+스티로폼+소주병+맥주병+파병(백색,갈색,청색)+고철+매트리스스프링+철캔+종이팩+소형전자제품+폐지+혼합플라스틱+고무파통",가평군 자원순환센터,031-580-2533,,08:40,17:40,00:00,00:00,토요일+일요일+공휴일,,,031-580-2533,경기도 가평군청,2026-05-26,4160000,경기도 가평군
안산시재활용선별센터,위탁,경기도 안산시 단원구 첨단로 696 (초지동),,37.29611618,126.79681004,8313.87,2008-01,7,플라스틱+스티로폼+병류+고철+알루미늄 캔 등,안산도시공사,,,08:00,18:00,08:00,17:00,,,,031-369-1583,경기도 안산시청,2026-05-12,3930000,경기도 안산시
평택에코센터 생활자원회수센터,위탁,경기도 평택시 고덕면 도시지원1길 91,경기도 평택시 고덕면 해창리 1266,37.0294541005,127.0145910206,4736.02,2019-11,64,파지+금속류+유리병류+플라스틱류+스티로폼 등,한솔제지㈜,,,08:00,17:00,00:00,00:00,"일요일, 공휴일",,,031-8024-3721,경기도 평택시청,2026-05-11,3910000,경기도 평택시
울주군 재활용품 선별장,직영,울산광역시 울주군 온산읍 화산로 113-11,울산광역시 울주군 온산읍 화산리 산 176-5,35.4194608,129.3287862,1432,1994-12,2,폐합성수지+종이류+플라스틱+고철+캔류,울산광역시 울주군청,052-204-2145,이순걸,08:00,17:00,00:00,00:00,토+일+법정공휴일,,,052-204-2145,울산광역시 울주군청,2026-05-25,3730000,울산광역시 울주군
대영기업순환자원(주),위탁,울산광역시 남구 여천로 174,울산광역시 남구 여천동 391-28,35.52604103,129.3528164,2288.29,1991-12,13,합성수지+파지+고철 외,대영기업순환자원(주),052-260-9944,정대도,08:00,17:30,08:00,17:30,토+일,,,052-241-7812,울산광역시 북구청,2026-06-21,3720000,울산광역시 북구
용정리 재활용선별장,직영,인천광역시 강화군 강화읍 해안북로 100,인천광역시 강화군 강화읍 용정리 878-1,37.74416922,126.5245616,542.86,2011-12,0,"재활용품(캔, 병, 플라스틱)",인천광역시 강화군청,032-930-3336,,09:00,18:00,00:00,00:00,공휴일,,,032-930-3573,인천광역시 강화군청,2026-06-15,3570000,인천광역시 강화군
(사)한국생활자원재활용협회,위탁,인천광역시 계양구 장제로743번길 14,인천광역시 계양구 작전동 26-1,37.534538,126.733497,642,1995-01,2,가전제품+가구 등,(사)한국생활자원재활용협회,032-552-7282,서혜정,09:00,18:00,00:00,00:00,공휴일(토요일포함),6개월,http://gyeyangrc.co.kr,032-450-5455,인천광역시 계양구,2026-05-28,3550000,인천광역시 계양구
(사)인천내일을 여는 집 계양구 재활용센터(계산점),위탁,인천광역시 계양구 계양대로205번길 11-3,인천광역시 계양구 계산동 942-10,37.541718,126.721928,1053,2026-01,2,가전제품+가구 등,(사)인천내일을 여는집,032-555-8899,이준모,09:00,18:00,00:00,00:00,공휴일(토요일운영),3개월,,032-450-5455,인천광역시 계양구,2026-05-28,3550000,인천광역시 계양구
중구재활용센터,위탁,대구광역시 중구 태평로51길 77,대구광역시 중구 동인동3가 394-13,35.87390641,128.6092627,658.834,2021-12,1,가구,㈜그린알앤이,053-254-8661,구근모,09:00,17:00,00:00,00:00,일요일+공휴일,,www.jungure.kr,053-661-2723,대구광역시 중구청,2026-06-24,3410000,대구광역시 중구
사하구재활용선별장,직영,부산광역시 사하구 낙동대로 641,부산광역시 사하구 하단동 845-52,35.12021823,128.9629623,865,1997-12,3,재활용품(플라스틱+폐비닐 등),부산광역시 사하구청,051-220-4452,이갑준,07:00,16:00,00:00,00:00,일요일+공휴일,,,051-220-4438,부산광역시 사하구청,2026-06-15,3340000,부산광역시 사하구
해운대구자원재활용센터,직영,부산광역시 해운대구 석대천로118(반여동),부산광역시 해운대구 반여동 1502-77,35.21765981,129.1375089,6632,1998-12,2,스티로폼+플라스틱 등 재활용 자원,부산광역시 해운대구청,051-749-5725,김성수,09:00,18:00,00:00,00:00,토+일+공휴일,,,051-749-4452,부산광역시 해운대구청 자원순환과,2026-06-12,3330000,부산광역시 해운대구
동래구 재활용센터,위탁,부산광역시 동래구 충렬대로202번길 33 (수안동),부산광역시 동래구 수안동 2-7,35.201229,129.0819157,231.4,1995-01,1,재활용품,부산광역시 동래구청 자원순환과,051-553-5838,강형기,09:00,19:00,09:00,17:00,일요일,,,051-550-4452,부산광역시 동래구 자원순환과,2026-06-15,3300000,부산광역시 동래구
강동구가전가구재활용센터,위탁,서울특별시 강동구 동남로 960,서울특별시 강동구 고덕동 302,37.559147,127.157112,1334.7,1995-05,6,중고가전가구 및 생활용품 판매,㈜리싸이클시티,02-427-8425,문대왕,09:00,18:00,09:00,18:00,설 당일+추석 당일+자세한 내용은 센터에 문의,3~6개월,https://cafe.naver.com/ecorety,02-3425-5860,서울특별시 강동구청,2026-05-26,3240000,서울특별시 강동구
강서재활용센터,위탁,서울특별시 강서구 곰달래로52길 26,서울특별시 강서구 화곡동 841-18,37.53064573,126.8591549,630,2017-01,1,가전+가구+사무용품 등,강서재활용센터,02-2602-0505,조진환,09:00,19:00,09:00,17:00,,,,02-2600-4242,서울특별시 강서구청,2026-04-23,3150000,서울특별시 강서구
사천시 재활용선별장,직영,경상남도 사천시 환경길 71,경상남도 사천시 사등동 86-9,34.92522294,128.1138245,1234,2007-12,5,잉코트 외 11개 품목,경상남도 사천시청 환경사업소,055-831-5606,사천시장(박동식),08:00,17:00,00:00,00:00,토+일+공휴일,,http://www.sacheon.go.kr,055-831-5606,경상남도 사천시청,2026-03-30,5340000,경상남도 사천시
김천시재활용선별장,위탁,경상북도 김천시 공단4길 51-11,경상북도 김천시 응명동 1012-1,36.15896481,128.1235108,14660,2003-12,0,PET(혼합)+투명페트병+PP+PE+PS+파지+유리병+공병+우유팩+알루미늄캔 등 29품목,경상북도 김천시청,054-420-6173,배낙호,08:30,17:30,00:00,00:00,일+공휴일,,,054-439-6906,㈜대한실업,2026-04-20,5060000,경상북도 김천시
동구자원재활용센터,위탁,대구광역시 동구 공항로31길 26(불로동),대구광역시 동구 불로동 866-9,35.903514,128.6309954,4467.9,1999-12,36,플라스틱+캔+유리병 등,㈜유창알앤씨,053-985-3840,성기원,08:00,17:00,08:00,12:00,일요일,,,053-662-2723,대구광역시 동구청,2026-04-08,3420000,대구광역시 동구
상계재활용센터,위탁,서울특별시 노원구 수락산로 212-23,서울특별시 노원구 상계동 1035-3,37.67156998,127.0548404,621.36,2022-12,1,중고 가전 및 가구류,노원구리싸이클링,02-933-8289,최남현,09:00,19:00,09:00,18:00,,,http://www.recyclenw.co.kr/,02-2116-3812,서울특별시 노원구  자원순환과,2026-04-01,3100000,서울특별시 노원구
공릉재활용센터,위탁,서을특별시 노원구 화랑로 486,서을특별시 노원구 공릉동 656-5,37.6191271,127.0789944,570.5,2019-12,2,중고 가전 및 가구류,케이리싸이클링,02-3296-5660,이재구,09:00,19:00,09:00,18:00,,,http://www.remarket.co.kr,02-2116-3812,서울특별시 노원구  자원순환과,2026-04-01,3100000,서울특별시 노원구
군위군 환경관리센터,직영,대구광역시 군위군 군위읍 내량길 150,대구광역시 군위군 군위읍 내량리 산58-3,36.2367537,128.5419155,84800,2011-04,1,플라스틱+고철+캔+병 등,대구광역시 군위군청,054-380-7991,김진열,09:00,18:00,00:00,00:00,토요일+공휴일,,https://www.gunwi.go.kr,054-380-7946,대구광역시 군위군청,2026-04-15,5141000,대구광역시 군위군
장성군 환경관리센터,직영,전라남도 장성군 황룡면 방곡길 19-62,전라남도 장성군 황룡면 월평리 554-3,35.2791179,126.7694034,802.29,1996-01,4,폐지+고철+PET 등,전라남도 장성군청,,,06:00,15:00,00:00,00:00,,,,061-390-7696,전라남도 장성군청,2026-02-20,5895000,전남광주통합특별시 장성군
이동읍공공재활용센터,위탁,경기도 용인시 처인구 이동읍 백옥대로489번길 19-6,경기도 용인시 처인구 이동읍 덕성리 1130-7,37.18157723,127.200127,1018,2015-12,1,스티로폼+폐매트리스 생활 재활용품 선별,용인도시공사,031-321-3088,신경철,08:00,17:00,08:00,12:00,일요일+공휴일,없음,https://www.yuc.co.kr/www/wpge/m_84/contents.do,031-6193-2334,경기도 용인시청,2026-03-10,B552739,용인도시공사
용인시재활용센터,위탁,경기도 용인시 처인구 경안천로 288 (고림동),경기도 용인시 처인구 고림동 954-3,37.25655929,127.2198451,2914,2007-08,3,잡파지+철캔+알루미늄캔 등 수거된 생활 재활용품 선별,용인도시공사,031-332-1190,신경철,08:00,18:00,08:00,12:00,일요일+공휴일,없음,https://www.yuc.co.kr/www/wpge/m_84/contents.do,031-6193-2334,경기도 용인시청,2026-03-10,B552739,용인도시공사
줄포환경센터,직영,전북특별자치도 부안군 줄포면 분탕골로 215-34,전북특별자치도 부안군 줄포면 줄포리 1034-17,35.58707426,126.6600257,88072,1996-03,10,폐지+알루미늄 등,전북특별자치도 부안군청,063-580-3911,권익현,09:00,16:00,09:00,12:00,일요일+신정+설날당일+추석당일,,,063-580-3911,전북특별자치도 부안군청,2026-01-14,4791000,전북특별자치도 부안군
맑은누리센터 재활용선별시설,위탁,충청남도 예산군 대률송림길 280,충청남도 예산군 대흥면 대률리 1-4,36.66493813,126.8411296,1034.58,2012-12,3,"플라스틱+철+병+종이+스티로폼,헌옷,소형가전",HL에코텍(주),031-335-6571,박종규,09:00,18:00,00:00,00:00,토요일+일요일+공휴일,,,041-339-7533,충청남도 예산군청,2026-01-07,4610000,충청남도 예산군
제천시자원관리센터,직영,충청북도 제천시 북부로 1860,충청북도 제천시 신동 653,37.12556968,128.1723422,150,2026-01,1,가구,충청북도 제천시,,김창규,09:00,18:00,09:00,16:00,,,,043-641-6458,충청북도 제천시청,2026-01-26,4400000,충청북도 제천시
수원시자원순환센터,위탁,경기도 수원시 영통구 광교호수로 278-1(하동),경기도 수원시 영통구 하동 17-3,37.28924123,127.086283,14268.88,2010-04,6,플라스틱+스티로폼+병류+고철+알루미늄 캔 등,수원도시공사,031-888-7911,이영인,08:00,17:00,00:00,00:00,일+공휴일,,https://www.suwonudc.co.kr/recycle/mainPage.do,031-5191-3255,경기도 수원시,2026-03-17,3740000,경기도 수원시
광주광역시 남구 재활용선별센터,직영,광주광역시 남구 효천길 25-21,광주광역시 남구 송하동 566-1,35.105324,126.878223,1375,2025-01,7,플라스틱+스티로폼 등 재활용가능자원,광주광역시 남구청,062-607-4918,,07:30,18:00,00:00,00:00,공휴일,,,062-607-3631,광주광역시 남구청,2026-02-20,5815000,전남광주통합특별시 남구
여주시 재활용품 선별장,직영,경기도 여주시 강천면 웃설만이길 151,경기도 여주시 강천면 부평리 548-2,37.25795462,127.7296807,5579,2001-08,15,합성수지 등,경기도 여주시청,,이충우,08:00,18:00,08:00,12:00,,,www.yeoju.go.kr,031-887-2785,경기도 여주시청,2025-12-22,5700000,경기도 여주시
광진구 재활용센터,위탁,서울특별시 광진구 능동로 352-1(중곡동),서울특별시 광진구 중곡동 47-24,37.56081954,127.0817523,378.1,2020-12,3,가전+가구,디에이8949,02-457-0303,이길홍,09:00,20:00,00:00,00:00,일요일,,,02-450-7609,서울특별시 광진구청,2026-02-09,3040000,서울특별시 광진구
진주시재활용품선별장,위탁,경상남도 진주시 내동면 유수길 75번길 27,경상남도 진주시 내동면 유수리 1014,35.12231134,128.0145496,1750,2005-12,0,종이류+종이팩+플라스틱+유리병류+스티로폼+필름류 등,㈜진사재활용,055-749-2279,하진호,08:30,17:30,08:30,17:30,일요일,,,055-749-5181,경상남도 진주시청,2025-12-29,5310000,경상남도 진주시
괴산광역생활자원회수센터,위탁,충청북도 괴산군 괴산읍 능촌로2길 70-37,충청북도 괴산군 괴산읍 능촌리 465-2,36.8318267,127.8341003,3750,2025-06,1,재활용품,한종산업개발㈜,043-834-9983,이재완,08:00,17:00,00:00,00:00,국가공휴일 및 주말,,https://www.goesan.go.kr,043-830-2773,충청북도 괴산군청,2025-12-20,4460000,충청북도 괴산군
구포재활용마트,직영,부산광역시 북구 낙동북로663번길 85-3(구포동),부산광역시 북구 구포동 1009-38,35.20444063,129.0004927,132,1999-05,1,가전제품+가구류,구포재활용마트,051-342-2266,,09:00,18:00,00:00,00:00,일+설 연휴+추석연휴+공휴일,판매일로부터 6개월이내 무상 수리,,051-309-4455,부산광역시 북구청,2025-12-12,3320000,부산광역시 북구
종합재활용센터,직영,부산광역시 북구 백양대로1091번길 19(구포동),부산광역시 북구 구포동 995-1,35.20221416,128.9979855,23,1999-05,1,가전제품(에어컨)+가구류,종합재활용센터,051-334-0712,,09:00,18:00,00:00,00:00,일+설 연휴+추석연휴+공휴일,판매일로부터 6개월이내 무상 수리,,051-309-4455,부산광역시 북구청,2025-12-12,3320000,부산광역시 북구
북구재활용백화점,직영,부산광역시 북구 의성로 67(덕천동),부산광역시 북구 덕천동 317-1,35.21449261,129.0097456,55,1999-05,1,가전제품+가구류+식당용품,북구재활용백화점,051-338-8796,,09:00,18:00,00:00,00:00,일+설 연휴+추석연휴+공휴일,판매일로부터 6개월이내 무상 수리,,051-309-4455,부산광역시 북구청,2025-12-12,3320000,부산광역시 북구
금곡종합재활용센터,직영,부산광역시 북구 금곡대로 589(금곡동),부산광역시 북구 금곡동 681-5,35.26020378,129.0133571,82,1999-05,1,가전제품+가구류,금곡종합재활용센터,051-362-7289,,09:00,18:00,00:00,00:00,일+설 연휴+추석연휴+공휴일,판매일로부터 6개월이내 무상 수리,,051-309-4455,부산광역시 북구청,2025-12-12,3320000,부산광역시 북구
만덕재활용센터,직영,부산광역시 북구 만덕대로156번길 42(덕천동),부산광역시 북구 덕천동 773-14,35.21139928,129.0217337,85.8,1999-05,1,식당용품,만덕재활용센터,051-336-8882,,09:00,18:00,00:00,00:00,일+설 연휴+추석연휴+공휴일,판매일로부터 6개월이내 무상 수리,,051-309-4455,부산광역시 북구청,2025-12-12,3320000,부산광역시 북구
북구재활용센터,직영,부산광역시 북구 낙동대로1762번길 57(구포동),부산광역시 북구 구포동 431-2,35.20712085,129.0008791,99,1999-05,1,가전제품+가구류,북구오케이재활용마트,051-337-1555,,09:00,18:00,00:00,00:00,일+설 연휴+추석연휴+공휴일,판매일로부터 6개월이내 무상 수리,,051-309-4455,부산광역시 북구청,2025-12-12,3320000,부산광역시 북구
영도구 재활용선별장,직영,부산광역시 영도구 해양로 202,부산광역시 영도구 동삼동 201-14,35.08794406,129.0719674,4101,2024-06,2,"재활용품(종이류, 종이팩, 고철, 캔류, 의류, 유리병, 누명페트병, 유색페트병, 요구르트병, 플라스틱, 스티로폼, 비닐, 폐건전지, 폐형광등, 소형폐가전 등)",영도구 재활용선별장,051-419-4461,김기재,09:00,18:00,00:00,00:00,토요일+일요일+공휴일,,http://www.yeongdo.go.kr/00492/00563/01723.web,051-419-4461,부산광역시 영도구청,2025-11-17,3280000,부산광역시 영도구
서초구재활용센터,위탁,서울특별시 서초구 양재대로12길 73-19,서울특별시 서초구 원지동 23,37.45933133,127.0401205,472.87,1995-01,4,냉장고+세탁기+TV+냉난방기+가구+소파 등,(사)한국생활자원재활용협회,02-571-7272,유익조,10:00,17:00,00:00,00:00,일+공휴일,판매일로부터 6개월 이내 무상 수리,,02-2155-6743,서울특별시 서초구청 청소행정과,2026-01-22,3210000,서울특별시 서초구
덕계재활용센터,위탁,경상남도 양산시 웅상대로 1038,경상남도 양산시 주진동 115-5,35.39145384,129.1586463,334.55,2010-12,2,폐가구+냉장고,양산덕계웅상재활용센터,055-364-2740,박경순,09:00,17:00,09:00,12:00,일요일,없음,,055-392-3342,경상남도 양산시청 자원순환과,2025-12-15,5380000,경상남도 양산시
북부재활용센터,위탁,경상남도 양산시 중앙로 109,경상남도 양산시 남부동 452-12,35.340437,129.0373755,243.88,2019-12,2,가전제품+폐가구,북부재활용센터,055-385-2929,김명옥,09:00,19:00,09:00,19:00,연중무휴,판매일로부터 6개월이내 무상수리,,055-392-3342,경상남도 양산시청 자원순환과,2025-12-15,5380000,경상남도 양산시
연제구 환경자원관리소,직영,부산광역시 연제구 고분로 222,부산광역시 연제구 연산동 243-19,35.183252,129.106349,2864,1999-05,0,폐지+고철+캔류+플라스틱류 등,부산광역시 연제구청,051-665-4454,주석수,09:00,18:00,00:00,00:00,토+일+공휴일,,,051-665-4454,부산광역시 연제구청,2025-12-15,3370000,부산광역시 연제구
자원새롬센터,위탁,경기도 연천군 청산면 초대로 106번길 125,경기도 연천군 청산면 대전리 459,37.9981387786,127.084494977,1190.29,2024-12,10,"파지류, 고철류, 병류, 플라스틱류, 비닐류, 잉고트, 가전제품, 전지류, 형광등 등",㈜에코비트워터,031-833-5707,박훈,08:00,17:00,00:00,00:00,공휴일,,,031-839-2257,경기도 연천군청 환경보호과,2025-11-25,4140000,경기도 연천군
밀양시 재활용품 선별장,직영,경상남도 밀양시 무안면 신생길 53-246,경상남도 밀양시 무안면 마흘리 산229-2,35.47909459,128.6870329,7137,2023-01,2,플라스틱+병류+캔류+스티로폼,밀양시,055-359-5328,,09:00,18:00,00:00,00:00,토요일+일요일,,,055-359-5328,경상남도 밀양시,2025-12-10,5360000,경상남도 밀양시
아산시생활자원회수센터,위탁,충청남도 아산시 환경공원로 121,,36.79792675,126.9806588,11517,2023-06,4,폐플라스틱+폐지 등,아산시시설관리공단,,,08:00,17:00,00:00,00:00,,,,041-540-6231,충청남도 아산시,2024-08-19,4520000,충청남도 아산시
영광군환경관리센터,위탁,전라남도 영광군 홍농읍 홍농로8길 214,,35.42665086,126.4321006,968,2022-12,1,PET 등 15개 품목,환경관리센터 주변지역 주민지원협의체,061-356-2127,김부,09:00,18:00,09:00,18:00,토요일+일요일,해당 없음,,061-350-4966,전라남도 영광군청,2024-09-13,5890000,전남광주통합특별시 영광군
중구새마을회알뜰매장,위탁,대전광역시 중구 문화로 60,대전광역시 중구 산성동 116-8,36.310838,127.3924838992,130,2000-12,1,옷+신발+가방 등,대전광역시중구새마을회,042-257-9522,,13:00,17:00,00:00,00:00,토+일+공휴일,물품 교환,,042-257-9522,대전광역시중구새마을회,2025-09-05,3650000,대전광역시 중구
포항시재활용선별장,위탁,경상북도 포항시 남구 서원재로 45,경상북도 포항시 남구 호동 65,35.986793,129.389004,2070,2013-12,5,종이+플라스틱류+캔류+병류 등,㈜제철동주민협의체,054-277-0555,,08:00,17:00,08:00,17:00,일요일 휴무,,,054-270-3191,경상북도 포항시청 자원순환과,2025-09-08,5020000,경상북도 포항시
안동시 생활자원회수센터,직영,경상북도 안동시 배고개길 84,경상북도 안동시 수하동 742-1,36.54865844,128.6716658,5811,2024-02,20,스티로폼+플라스틱 등 재활용 자원,경상북도 안동시청,054-840-3880,권기창,09:00,18:00,00:00,00:00,토+일+공휴일,,,054-840-3880,경상북도 안동시청,2025-09-09,5070000,경상북도 안동시
유창알앤씨,위탁,대구광역시 서구 국채보상로20길 25,대구광역시 서구 중리동 1075-1,35.8663645,128.5417192,4658,2024-01,11,재활용품,대구광역시 서구청,053-663-2723,성기원,06:00,15:00,06:00,15:00,일요일,N,,053-663-2722,대구광역시 서구청,2025-09-05,3430000,대구광역시 서구
정부물품재활용센터,위탁,인천광역시 중구 서해대로 324,인천광역시 중구 신흥동3가 7-225,37.4557581,126.6296378,2450.88,1998-12,4,가구+가전제품,㈜정부물품재활용센터,032-888-7282,,09:00,18:00,09:30,17:00,설 당일+설 연휴+추석 당일+추석 연휴,3개월~6개월,www.korecycle.or.kr,032-760-7217,인천광역시 중구청 환경보호과,2025-09-11,3491000,인천광역시 영종구
시흥시 환경미화타운,직영,경기도 시흥시 뒷방울길 80,경기도 시흥시 정왕동 1,37.37165632,126.7572161,27086,2007-01,11,종이류+고철류+캔류+병류+플라스틱류+필름류+스티로폼류,시흥도시공사,031-488-6890,유병욱,08:00,17:00,08:00,16:00,일요일,,https://www.shsi.or.kr/,031-310-2363,경기도 시흥시청,2025-09-01,B554066,시흥도시공사
사상구재활용센터,위탁,부산광역시 사상구 백양대로 858(모라동),부산광역시 사상구 모라동 1365-3,35.18310703,128.989651,264,1995-01,2,가구+가전제품 등,사상구재활용센터,051-315-9721,,09:00,18:00,00:00,00:00,일+설 연휴+추석 연휴+공휴일,판매일로부터 6개월 이내 무상 수리,,051-310-4455,부산광역시 사상구청,2025-07-08,3390000,부산광역시 사상구
합천군재활용선별장,위탁,경상남도 합천군 대양면 합천대로 2586-51,,35.54941673,128.1734842,850,2022-12,1,플라스틱+유리병+고지 등 재활용 전품목,환경시설관리주식회사+㈜현산종합건설,055-930-8666,권지훈+전지환,09:00,18:00,00:00,00:00,주말+공휴일,,,055-930-3304,경상남도 합천군청,2025-07-11,5480000,경상남도 합천군
충주시클린센터,직영,"충청북도 충주시 낙수당1길 41(칠금동, 클린센터)",충청북도 충주시 칠금동 420-3,36.98235533,127.9016585,6623,2007-08,21,대형폐기물,충청북도 충주시청,043-850-6991,이정남,08:00,17:00,00:00,00:00,일+공휴일,,https://clean.chungju.go.kr/WB_ChungJu_web/,043-850-6980,충청북도 충주시청,2025-06-30,4390000,충청북도 충주시
서구 쓰레기선별장,직영,인천광역시 서구 거월로 37,인천광역시 서구 왕길동 61-8,37.58084553,126.647851,5981,1997-09,1,무단투기 폐기물 중 재활용가능자원 선별,인천광역시 서구청,032-560-1936,강범석,09:00,18:00,00:00,00:00,토+일+법정공휴일,,,032-560-1936,인천광역시 서구청 자원순환과,2025-07-07,3561000,인천광역시 서해구
대청면 소청 재활용 선별장,직영,인천광역시 옹진군 대청면 소청동로 159,인천광역시 옹진군 대청면 소청리 58,37.77133063,124.7609434,115.9,2020-10,0,종이류+고철류+캔류+병류+플라스틱류+필름류+스티로폼류,인천광역시 옹진군 대청면,032-899-3409,문경복,09:00,18:00,09:00,13:00,일요일,,,032-899-2620,인천광역시 옹진군,2025-07-16,3580000,인천광역시 옹진군
자월면 승봉 재활용 선별장,직영,인천광역시 옹진군 자월면 승봉로29번길 100-13,인천광역시 옹진군 자월면 승봉리 771-3,37.17284668,126.2963751,128.5,2020-03,0,종이류+고철류+캔류+병류+플라스틱류+필름류+스티로폼류,인천광역시 옹진군 자월면,032-899-3750,문경복,09:00,18:00,09:00,13:00,일요일,,,032-899-2620,인천광역시 옹진군,2025-07-16,3580000,인천광역시 옹진군
자월면 대이작 재활용 선별장,직영,인천광역시 옹진군 자월면 대이작로 159번길 127,인천광역시 옹진군 자월면 이작리 394-3,37.17468452,126.264866,1351,2020-11,0,종이류+고철류+캔류+병류+플라스틱류+필름류+스티로폼류,인천광역시 옹진군 자월면,032-899-3750,문경복,09:00,18:00,09:00,13:00,일요일,,,032-899-2620,인천광역시 옹진군,2025-07-16,3580000,인천광역시 옹진군
대청면 대청 재활용 선별장,직영,인천광역시 옹진군 대청면 대청북로 53,인천광역시 옹진군 대청면 대청리 산16-26,37.83920892,124.7053035,415,2020-07,2,종이류+고철류+캔류+병류+플라스틱류+필름류+스티로폼류,인천광역시 옹진군 대청면,032-899-3610,문경복,09:00,18:00,09:00,13:00,일요일,,,032-899-2620,인천광역시 옹진군,2025-07-16,3580000,인천광역시 옹진군
덕적면 울도 재활용 선별장,직영,인천광역시 옹진군 덕적면 울도로 182번길 8-1,인천광역시 옹진군 덕적면 울도리 산42-1,37.02579534,125.9966876,69,2020-06,0,종이류+고철류+캔류+병류+플라스틱류+필름류+스티로폼류,인천광역시 옹진군 덕적면,032-899-3740,문경복,09:00,18:00,09:00,13:00,일요일,,,032-899-2620,인천광역시 옹진군,2025-07-16,3580000,인천광역시 옹진군
순천시자원순환센터,위탁,전라남도 순천시 주암면 동주로 2230-63,전라남도 순천시 주암면 구산리 832,35.06809476,127.2483342,2391000,2014-06,3,재활용품 선별,순천에코그린㈜,061-751-8864,박정관,08:00,17:00,08:00,17:00,일,,,061-751-8864,전라남도 순천시청,2024-07-31,5790000,전남광주통합특별시 순천시
덕적면 백아 재활용 선별장,직영,,인천광역시 옹진군 덕적면 백아리 149-6,37.076451,125.9442335,59.5,2020-06,0,종이류+고철류+캔류+병류+플라스틱류+필름류+스티로폼류,인천광역시 옹진군 덕적면,032-899-3740,문경복,09:00,18:00,09:00,13:00,일요일,,,032-899-2620,인천광역시 옹진군,2025-07-16,3580000,인천광역시 옹진군
덕적면 문갑 재활용 선별장,직영,인천광역시 옹진군 덕적면 문갑로 61,인천광역시 옹진군 덕적면 문갑리 74-18,37.17249596,126.107333,96.05,2020-06,0,종이류+고철류+캔류+병류+플라스틱류+필름류+스티로폼류,인천광역시 옹진군 덕적면,032-899-3740,문경복,09:00,18:00,09:00,13:00,일요일,,,032-899-2620,인천광역시 옹진군,2025-07-16,3580000,인천광역시 옹진군
영흥면 재활용 선별장,직영,인천광역시 옹진군 영흥면 영흥남로110번길 116,인천광역시 옹진군 영흥면 외리 81-2,37.24982327,126.4667491,312,2020-01,4,종이류+고철류+캔류+병류+플라스틱류+필름류+스티로폼류,인천광역시 옹진군 영흥면,032-899-3820,문경복,09:00,18:00,09:00,13:00,일요일,,,032-899-2620,인천광역시 옹진군,2025-07-16,3580000,인천광역시 옹진군
북도면 장봉리 재활용 선별장,직영,인천광역시 옹진군 북도면 장봉로 678,인천광역시 옹진군 북도면 장봉리 546-2,37.54345186,126.3327049,336,2020-11,1,종이류+고철류+캔류+병류+플라스틱류+필름류+스티로폼류,인천광역시 옹진군 북도면,032-899-3410,문경복,09:00,18:00,09:00,13:00,일요일,,,032-899-2620,인천광역시 옹진군,2025-07-16,3580000,인천광역시 옹진군
백령면 재활용 선별장,직영,인천광역시 옹진군 백령면 백령남로72번길 356,인천광역시 옹진군 백령면 진촌리 2376,37.95713929,124.6965634,645.5,2020-10,6,종이류+고철류+캔류+병류+플라스틱류+필름류+스티로폼류,인천광역시 옹진군 백령면,032-899-3420,문경복,09:00,18:00,09:00,13:00,일요일,,,032-899-2620,인천광역시 옹진군,2025-07-16,3580000,인천광역시 옹진군
자월면 자월 재활용 선별장,직영,인천광역시 옹진군 자월면 자월서로 78,인천광역시 옹진군 자월면 자월리 416-5,37.2500672,126.3151764,471,2020-04,3,종이류+고철류+캔류+병류+플라스틱류+필름류+스티로폼류,인천광역시 옹진군 자월면,032-899-3750,문경복,09:00,18:00,09:00,13:00,일요일,,,032-899-2620,인천광역시 옹진군,2025-07-16,3580000,인천광역시 옹진군
연평면 대연평 재활용 선별장,직영,인천광역시 옹진군 연평면 연평로 746-46,인천광역시 옹진군 연평면 연평리 505-1,37.65306184,125.6908597,309,2020-04,3,종이류+고철류+캔류+병류+플라스틱류+필름류+스티로폼류,인천광역시 옹진군 연평면,032-899-3490,문경복,09:00,18:00,09:00,13:00,일요일,,,032-899-2620,인천광역시 옹진군,2025-07-16,3580000,인천광역시 옹진군
북도면 신도리 재활용 선별장,직영,인천광역시 옹진군 북도면 시도로86번길 78,인천광역시 옹진군 북도면 시도리 277-31,37.53555774,126.4311789,321,2020-04,4,종이류+고철류+캔류+병류+플라스틱류+필름류+스티로폼류,인천광역시 옹진군 북도면,032-899-3410,문경복,09:00,18:00,09:00,13:00,일요일,,,032-899-2620,인천광역시 옹진군,2025-07-16,3580000,인천광역시 옹진군
덕적면 덕적 재활용 선별장,직영,인천광역시 옹진군 덕적면 덕적남로 771번길 103,인천광역시 옹진군 덕적면 서포리 615,37.23042245,126.1065875,856.92,2020-04,6,종이류+고철류+캔류+병류+플라스틱류+필름류+스티로폼류,인천광역시 옹진군 덕적면,032-899-3740,문경복,09:00,18:00,09:00,13:00,일요일,,,032-899-2620,인천광역시 옹진군,2025-07-16,3580000,인천광역시 옹진군
횡성군재활용선별장,위탁,강원특별자치도 횡성군 횡성읍 학오로 89(학곡리),강원특별자치도 횡성군 횡성읍 학곡리 258,37.51123196,127.9701806,450,2007-06,0,플락스틱+고철+캔+파지,횡성군지역자활센터,033-345-7132,박성길,09:00,18:00,00:00,00:00,토+일+공휴일,,,033-340-5912,강원도 횡성군청 환경자원사업소,2023-06-30,4261000,강원특별자치도 횡성군
완도군 자원관리센터,위탁,전라남도 완도군 완도읍 망석리 1-4 폐기물처리장,전라남도 완도군 완도읍 청해진서로 189-735,34.290004,126.769156,82332,2011-04,2,플라스틱+유리병,완도군청,,,09:00,18:00,00:00,00:00,,,,061-550-0025,아라연환경㈜,2020-08-10,5900000,전남광주통합특별시 완도군
군산시재활용선별시설,위탁,전북특별자치도 군산시 새만금북로 630-28,전북특별자치도 군산시 내초동 201-7,35.94722384,126.6058336,2235.51,2021-12,2,페트병 외 9개품목,전북특별자치도 군산시,063-454-3453,강임준,08:00,17:00,00:00,00:00,주휴일+근로자의날,,,063-454-3453,전북특별자치도 군산시청,2025-11-20,4671000,전북특별자치도 군산시
재활용선별장,위탁,광주광역시 서구 서창둑길 166(세하동),광주광역시 서구 세하동 765,35.12150861,126.8264274,4180,2024-12,17,대형폐기물 및 재활용품 수집·운반·처리+선별장 내 시설·장비 유지관리,광주광역시 서구 시설관리공단,062-601-6024,정창욱(직무대행),08:30,17:30,00:00,00:00,일+공휴일+설 연휴+추석 연휴,,https://seogufmc.or.kr,062-360-7287,광주광역시 서구청,2025-11-19,5810000,전남광주통합특별시 서구
김해시 재활용품선별장,위탁,경상남도 김해시 진영읍 김해대로835번길 13-72,경상남도 김해시 진영읍 설창리 820,35.299424,128.7784072,15989,2001-12,2,스티로폼+고철+플라스틱+비닐류+폐가전제품 등 재활용품,부산광역시자원재활용센타 김해선별장,055-330-3409,김종원,08:00,17:00,08:00,17:00,토+일+1월1일+설당일+설다음날+추석당일+추석다음날+근로자의날,,,055-330-3394,경상남도 김해시청,2025-11-17,5350000,경상남도 김해시
기장군재활용선별장,위탁,부산광역시 기장군 기장읍 소정안길 84,부산광역시 기장군 기장읍 내리 167-3,35.20665312,129.2023933,949,2001-12,4,가구류+가전제품+주방용품+기타 등,기장군도시관리공단,051-792-4725,김윤재,08:00,17:00,00:00,00:00,공휴일,,www.yeogiro24.co.kr,051-709-4454,부산광역시 기장군청,2025-11-21,3400000,부산광역시 기장군
경남거제지역자활센터,위탁,경상남도 거제시 사등면 두동로1길 109,경상남도 거제시 사등면 사곡리 375-1,34.88376961,128.5736717,402,2000-12,1,가구+전제품+헌옷 등,경남거제지역자활센터,055-688-5890,박로미,09:00,18:00,00:00,00:00,일+공휴일,,http://www.kojejh.or.kr/index.php,055-639-4834,경상남도 거제시청,2025-11-25,5370000,경상남도 거제시
금산군 생활자원회수센터,위탁,충청남도 금산군 추부면 용천로798-51,충청남도 금산군 추부면 용지리 430-12,36.17057979,127.4445517,1124,2020-12,0,PET+공병+파지+고철,충청남도 금산군청,041-750-2523,박범인,09:00,18:00,00:00,00:00,법정공휴일,,,041-750-2554,충청남도 금산군청,2025-11-24,4550000,충청남도 금산군
양구군 전처리시설,직영,강원특별자치도 양구군 국토정중앙면 국토정중앙로 300,강원특별자치도 양구군 국토정중앙면 창리 산 84,38.07026616,128.0418259,196,2008-10,10,세탁기+냉장고+가구+의류 등,강원특별자치도 양구군청,033-480-7301,서흥원,09:00,18:00,09:00,18:00,일요일,,,033-480-7301,강원특별자치도 양구군청,2024-11-29,4321000,강원특별자치도 양구군
광주광역시 동구 재활용선별장,직영,광주광역시 동구 남문로 486(소태동),광주광역시 동구 소태동 189-1,35.1150617,126.936132,410,2021-02,3,스티로폼+플라스틱+캔+재활용가능자원,광주광역시 동구청,062-608-8936,임택,09:00,18:00,00:00,00:00,공휴일,,,062-608-8936,광주광역시 동구청,2024-09-01,5805000,전남광주통합특별시 동구
포천시 환경자원센터,직영,경기도 포천시 신북면 신평로16번길 207,경기도 포천시 신북면 만세교리 101,37.9644695550,127.2408355937,18000,2024-01,2,생활폐기물(재활용품),경기도 포천시청,031-538-2487,포천시장 백영현,09:00,18:00,00:00,00:00,공휴일,,,031-538-2487,경기도 포천시청,2024-11-14,5600000,경기도 포천시
농촌폐기물종합처리시설,직영,전라남도 담양군 담양읍 태봉로 228-73,전라남도 담양군 담양읍 삼만리 410,35.33667796,126.9980464,46.704,1995-10,1,세탁기+냉장고+가구+신발 등,담양군,,,09:00,18:00,00:00,00:00,공휴일,,http://www.damyang.go.kr/index.damyang,061-380-3079,담양군청,2022-09-30,5830000,전남광주통합특별시 담양군
연평면 소연평 재활용 선별장,직영,인천광역시 옹진군 연평면 소연평로 161-94,인천광역시 옹진군 연평면 연평리 931-4,37.61273536,125.7203857,150,2020-11,0,종이류+고철류+캔류+병류+플라스틱류+필름류+스티로폼류,인천광역시 옹진군 연평면,032-899-3490,문경복,09:00,18:00,09:00,13:00,일요일,,,032-899-2620,인천광역시 옹진군,2025-07-16,3580000,인천광역시 옹진군
익산시 생활자원 회수센터,위탁,전북특별자치도 익산시 선화로 798,전북특별자치도 익산시 부송동 157-93,35.96738245,127.0000091,2972,2010-01,19,세탁기+냉장고+가구,(유)행복나누미,063-840-4430,김형섭,05:30,16:30,05:30,11:00,연중무휴,,www.Iksan.go.kr,063-859-5471,전북특별자치도 익산시청,2025-07-23,4681000,전북특별자치도 익산시
금천구 지정 독산동 재활용센터,위탁,서울특별시 금천구 독산로 303,서울특별시 금천구 독산동 990-2,37.4737391,126.9030804,413,2000-08,1,가전제품류+가구류+의류+도서 등,금천구 재활용 센터,02-863-7282,유명종,09:00,19:00,09:00,17:00,,,www.jungo7282.co.kr,02-2627-1484,서울특별시 금천구청,2025-07-24,3170000,서울특별시 금천구
금천구재활용센터,위탁,서울특별시 금천구 시흥대로 182,서울특별시 금천구 시흥동 903-5,37.45017338,126.9027728,661,1995-07,1,가전제품류+가구류+의류+도서 등,㈜시흥가구백화점,02-802-7282,권지섭,09:00,21:00,09:00,21:00,,,,02-2627-1484,서울특별시 금천구청,2025-07-24,3170000,서울특별시 금천구
강북구재활용센터,위탁,서울특별시 강북구 덕릉로58,서울특별시 강북구 수유동 48-46,37.63425871,127.0200916,162.8,2024-04,2,중고가구가전,강북구재활용센터,02-980-3613,김재중,09:00,19:00,00:00,00:00,일요일,6개월,,02-901-6766,서울특별시 강북구청,2025-07-25,3080000,서울특별시 강북구
고성군생활자원회수센터,직영,강원특별자치도 고성군 죽왕면 짱고개길 253,강원특별자치도 고성군 죽왕면 향목리 223,38.36330744,128.4818996,1696,2014-06,112,PET+PS+철캔+알류미늄캔 등,강원특별자치도 고성군청,033-680-3983,함명준,09:00,18:00,00:00,00:00,법정공휴일,,,033-680-3983,강원특별자치도 고성군청,2025-03-10,4341000,강원특별자치도 고성군
인제군 공공재활용선별시설,위탁,강원특별자치도 인제군 북면 금강로 221,강원특별자치도 인제군 북면 월학리 1235-3,38.13766188,128.212133,881.86,2005-08,7,파지+PET+PP+PE+PS+캔+고철+잡병+공병,환경에너지솔루션,033-463-8906,이용현,09:00,18:00,00:00,00:00,토요일+일요일+공휴일,,,033-460-2064,강원특별자치도 인제군청,2024-12-13,4331000,강원특별자치도 인제군
오산시 자원재활용센터,직영,경기도 오산시 오산천로 3-35,경기도 오산시 누읍동 196-4,37.13313732,127.0586926,10645,2005-12,15,생활쓰레기+재활용품 등,경기도 오산시청,031-8036-6456,이권재,05:00,18:00,05:00,13:00,일요일,,,031-8036-6456,경기도 오산시청,2025-07-03,4000000,경기도 오산시
상주시 재활용품선별장,직영,경상북도 상주시 영남제일로 1408-51,,36.42394039,128.1907151,991.57,2014-12,2,가정용 스티로폼+플라스틱+PET+파병+고철,경상북도 상주시청,,,09:00,16:00,09:00,16:00,일+국가공휴일,,,054-537-7363,경상북도 상주시청 환경관리과,2025-06-20,5110000,경상북도 상주시
성주군 재활용선별시설,직영,경상북도 성주군 성주읍 삼산1길 266-3,경상북도 성주군 성주읍 삼산리 509,35.9255928283,128.3102771745,2277.57,2018-04,3,"플라스틱류, 고철류 등",성주군 자원순환사업소,054-930-6197,배재억,08:00,16:30,00:00,00:00,일요일+공휴일,,,054-930-6197,성주군 자원순환사업소,2025-06-20,5210000,경상북도 성주군
철원군 재활용센터,직영,강원도 철원군 철원읍 독서당길 305,강원도 철원군 철원읍 율이리 500,38.22414087,127.1695236,1273.68,2007-08,1,파지+우유팩+소주병+맥주병+백색병+갈색병+청색병+고철+철캔+스프링류+잡선+양은류+알루미늄캔+스덴+신주류+PET+PE+PP+PS+감용스티로폼+비료포대,강원도 철원군청,033-450-5572,환경자원사업소장,09:00,18:00,00:00,00:00,,,www.cwg.go.kr,033-450-5572,강원도 철원군청,2022-11-23,4301000,강원특별자치도 철원군
도봉구재활용센터,직영,서울특별시 도봉구 마들로13길 218,서울특별시 도봉구 창동 181-39,37.659920,127.045390,1594,2001-05,3,"가전, 가구 등",도봉구재활용센터,02-902-8272,최재호,09:00,19:30,10:00,18:30,"일요일 휴무, 자세한 내용은 센터에 문의",,,02-901-5057,서울특별시 도봉구시설관리공단,2018-05-15,3090000,서울특별시 도봉구
해남군 재활용품 선별시설,직영,전라남도 해남군 해남읍 호교길 73-265,전라남도 해남군 해남읍 복평리 891,34.56720876,126.5376835,1044.01,2024-01,3,재활용품 선별,전라남도 해남군청,061-530-5339,명현관,09:00,18:00,09:00,18:00,설 연휴+추석 연휴,,www.haenam.go.kr,061-530-5339,전라남도 해남군청,2025-11-21,5870000,전남광주통합특별시 해남군
영암군 공공재활용선별시설,직영,전라남도 영암군 군서면 녹색환경길 374,전라남도 영암군 군서면 도장리 1094,34.80677839,126.6100995,1209,2009-10,1,고지+고철+소각고철+철캔+알루미늄캔+PET+PE+PP+PS+플라스틱+공병+잡병+스티로폼(인고트),전라남도 영암군청,061-470-2437,영암군수(우승희),08:00,17:00,00:00,00:00,매주 토요일+일요일+공휴일,,,061-470-2169,전라남도 영암군청,2025-11-01,5875000,전남광주통합특별시 영암군
원주시 중고가전가구재활용센터(2호점),위탁,강원특별자치도 원주시 원일로 214(학성동),강원특별자치도 원주시 학성동 430-8,37.3557821,127.9444831,330,2022-07,1,중고가구가전제품,원주시 중고가전가구재활용센터(2호점),033-743-0119,원덕자,09:00,18:30,00:00,00:00,일+공휴일,,wjrecycle.com,033-737-3091,강원특별자치도 원주시청,2025-11-25,4191000,강원특별자치도 원주시
원주시 중고가전가구재활용센터(1호점),위탁,강원특별자치도 원주시 치악로 1601-6(단구동),강원특별자치도 원주시 단구동 724-22,37.32612272,127.9599504,495,2022-07,2,중고가구가전제품,원주시 중고가전가구재활용센터(1호점),033-735-7388,원덕자,09:00,18:30,00:00,00:00,일+공휴일,,wjrecycle.com,033-737-3091,강원특별자치도 원주시청,2025-11-25,4191000,강원특별자치도 원주시
김포시재활용수집소,위탁,경기도 김포시 금포로1119,경기도 김포시 걸포동 1-3,37.64624046,126.7056753,1912.92,2005-08,14,"종이류(신문, 파지, 우유팩) 외 11종",김포도시관리공사,031-985-2969,이형록,08:00,17:00,00:00,00:00,매주 일+공휴일,,http://www.gp.or.kr,031-980-2776,경기도 김포시청,2025-11-24,4090000,경기도 김포시
관악구 재활용센터(알뜰나라),위탁,서울특별시 관악구 신림로 202,서울특별시 관악구 신림동 96-48,37.47542075,126.9372603,261.52,2022-12,1,가전제품+가구,알뜰나라,02-877-1140,김태훈,10:00,21:00,10:00,18:00,명절연휴+일요일,소형가전 1개월+대형가전 3개월,,02-879-6226,서울특별시 관악구청,2025-11-17,3200000,서울특별시 관악구
수성구 생활자원회수센터,위탁,대구광역시 수성구 청호로 10,대구광역시 수성구 범물동 105-7,35.82020842,128.6491827,2788,2018-12,4,플라스틱+비닐+스티로폼+병+종이+고철,(주)유창알앤씨,053-782-5900,성기원,08:00,17:00,08:00,17:00,일+설 연휴+추석 연휴+근로자의날,,,053-666-2723,대구광역시 수성구청,2025-12-01,3460000,대구광역시 수성구
정읍시 재활용선별장,직영,전북특별자치도 정읍시 영파길 169,전북특별자치도 정읍시 영파동 399-1,35.61423844,126.8549416,1047,2005-12,3,플라스틱+스티로폼+병+종이+고철+비고철+장판,전북특별자치도 정읍시청,063-539-8173,이학수,09:00,18:00,09:00,13:00,일+설 연휴+추석 연휴+근로자의 날,,,063-539-8173,전북특별자치도 정읍시청,2025-12-01,4691000,전북특별자치도 정읍시
강경읍재활용센터,직영,충청남도 논산시 강경읍 옥녀봉로 66,충청남도 논산시 강경읍 홍교리 32-1,36.163983,127.015155,91,2025-12,0,의류+파지(신문) 등,강경읍사무소,041-745-3009,,09:00,18:00,00:00,00:00,토+일+공휴일,,,041-746-8523,충청남도 논산시 강경읍사무소,2025-12-01,4540000,충청남도 논산시
연무읍재활용센터,직영,충청남도 논산시 연무읍 안심로 50,충청남도 논산시 연무읍 마산리 700-1,36.125122,127.099030,108,1997-12,0,고철+의류+파지(신문) 등,연무읍사무소,041-746-8568,,09:00,18:00,00:00,00:00,토+일+공휴일,,,041-746-8545,충청남도 논산시 연무읍사무소,2025-12-01,4540000,충청남도 논산시
송파구재활용센터,위탁,서울특별시 송파구 문정로246 (마천동),서울특별시 송파구 마천동 27,37.4999099,127.1420313,743.47,2021-08,3,가전제품+가구 등,새마을운동송파구지회,02-400-9333,이승현,09:00,18:00,09:00,15:00,일+공휴일,판매일로부터 3개월 무상 수리,https://cafe.naver.com/reandup,02-2147-6373,서울특별시 송파구청,2024-08-12,3230000,서울특별시 송파구
보은군 생활자원순환센터,직영,충청북도 보은군 보은읍 산척길 209-51,충청북도 보은군 보은읍 용암리 산37,36.487394,127.6739234,1100,2003-10,2,재활용품 선별,충청북도 보은군,043-540-3262,최재형,09:00,18:00,00:00,00:00,공휴일,,http://www.boeun.go.kr/,043-540-3262,충청북도 보은군,2024-08-05,4420000,충청북도 보은군
곡성군 재활용품 선별장,직영,전라남도 곡성군 곡성읍 대평뜰3길 148,,35.28181261,127.3252385,2066,2001-01,2,플라스틱병+캔류,전라남도 곡성군청,061-360-8521,,09:00,18:00,09:00,14:00,일요일,,,061-360-8522,전라남도 곡성군청,2024-07-23,5835000,전남광주통합특별시 곡성군
의왕시재활용센터,위탁,경기도 의왕시 가나무로 20,경기도 의왕시 이동 478,37.33777051,126.9642594,12653,2017-01,2,생활쓰레기+재활용품+음식물 등,환경에너지솔루션㈜,031-462-7895,이상헌,08:00,17:00,00:00,00:00,일요일+공휴일,,,031-345-2862,경기도 의왕시청,2025-11-07,4030000,경기도 의왕시
영양군환경자원센터,직영,경상북도 영양군 영양읍 석영로 1093-81,경상북도 영양군 영양읍 전곡리 306,36.63065342,129.1277045,735,2023-01,0,폐골판지+고철류+비철+금속캔+유리병+장판+잉고트+하이샤시+투명PET+PE+PP+PET,경상북도 영양군청,054-680-6532,오도창,09:00,17:00,00:00,00:00,토요일(11:00이후)+일요일+공휴일,,,054-680-6531,경상북도 영양군청,2025-11-10,5170000,경상북도 영양군
동아재활용센터,위탁,부산광역시 남구 동명로115-1(용호동),부산광역시 남구 용호동 413-13,35.12021396,129.1097956,40,2020-12,1,가전제품,동아재활용센터,051-626-1713,,09:00,20:00,09:00,20:00,일요일,,,051-607-4451,부산광역시 남구청,2025-11-07,3310000,부산광역시 남구
보람재활용센타,위탁,울산광역시 남구 돋질로 136,울산광역시 남구 달동 616-11,35.5399033,129.3206335,23,2024-12,2,가전+가구,보람재활용센타,052-292-4982,김평석,09:00,19:00,09:00,19:00,일,,http://울산중고가전.kr,052-226-4822,울산광역시 남구청,2025-11-13,3700000,울산광역시 남구
남구재활용센터,위탁,울산광역시 남구 산업로 679-1,울산광역시 남구 삼산동 194-4,35.54177297,129.353249,100,2024-12,1,가전+가구+식당비품,남구재활용센터,052-258-8272,김예찬,09:00,19:00,09:00,19:00,격주 토+일,,,052-226-4822,울산광역시 남구청,2025-11-13,3700000,울산광역시 남구
나눔 중고 알뜰매장,위탁,울산광역시 남구 수암로 193,울산광역시 남구 야음동 671-1,35.526987,129.3281284,180,2024-12,1,가전+가구,나눔 중고 알뜰매장,052-227-8946,유경숙,09:00,18:00,09:00,18:00,일,6개월 이내 무상수리,,052-226-4822,울산광역시 남구청,2025-11-13,3700000,울산광역시 남구
국민 재활용,위탁,울산광역시 남구 수암로 271,울산광역시 남구 야음동 385-29,35.52243771,129.3347502,150,2024-12,1,가전+가구,국민 재활용,052-261-7262,박윤심,09:00,18:30,09:00,18:30,일,,,052-226-4822,울산광역시 남구청,2025-11-13,3700000,울산광역시 남구
울산 재활용,위탁,울산광역시 남구 수암로 310,울산광역시 남구 야음동 368-4,35.52030088,129.3378032,100,1999-12,1,가전+가구,울산 재활용,052-260-2114,방현도,09:00,18:00,09:00,18:00,연중무휴,,,052-226-4822,울산광역시 남구청,2025-11-13,3700000,울산광역시 남구
광장재활용센터,위탁,울산광역시 남구 산업로 693,울산광역시 남구 삼산동 147-9,35.54265753,129.354117,100,2024-12,1,가전+가구,광장재활용센터,052-256-1900,김수연,09:00,20:00,00:00,00:00,일+공휴일,6개월 이내 무상수리,www.gwangjang.co.kr,052-226-4822,울산광역시 남구청,2025-11-13,3700000,울산광역시 남구
이안재활용마트,위탁,울산광역시 남구 삼산로 98,울산광역시 남구 달동 915-2,35.53474255,129.3184596,230,2024-12,1,가전+식당비품,이안재활용마트,052-256-4986,주혜정,07:00,18:00,07:00,18:00,일,,,052-226-4822,울산광역시 남구청,2025-11-13,3700000,울산광역시 남구
울산 중고 프라자,위탁,울산광역시 남구 돋질로 121,울산광역시 남구 신정동 170-12,35.54000407,129.3189429,300,2024-12,2,가전+가구,울산 중고 프라자,052-256-1232,심영미,09:00,18:00,09:00,18:00,일,,,052-226-4822,울산광역시 남구청,2025-11-13,3700000,울산광역시 남구
부일전자,위탁,울산광역시 남구 신정로 116번길 14,울산광역시 남구 신정동 152-4,35.5422021,129.3209531,15,2024-12,1,가전,부일전자,052-211-4380,이칠학,09:00,17:00,00:00,00:00,일+공휴일,,,052-226-4822,울산광역시 남구청,2025-11-13,3700000,울산광역시 남구
북부 재활용 센터,위탁,울산광역시 남구 수암로 62,울산광역시 남구 신정동 804-10,35.53045106,129.3146731,210,2024-12,1,가전,북부 재활용 센터,052-260-5985,김승민,09:00,19:00,09:00,19:00,일,,,052-226-4822,울산광역시 남구청,2025-11-13,3700000,울산광역시 남구
열린 재활용,위탁,울산광역시 남구 돋질로 109,울산광역시 남구 신정동 590-11,35.53954689,129.3174867,749,2024-12,2,가전+가구,열린 재활용,052-272-3003,이상옥,09:00,18:00,09:00,18:00,일,,,052-226-4822,울산광역시 남구청,2025-11-13,3700000,울산광역시 남구
서구재활용센터,위탁,부산광역시 서구 충무대로 120(암남동),부산광역시 서구 암남동 95-30,35.0810401,129.024756,184,1996-12,1,가구+가전,서구재활용센터,051-247-8777,배창호,09:00,18:00,09:00,18:00,,,,051-240-4451,부산광역시 서구청,2025-11-13,3260000,부산광역시 서구
동두천시 재활용선별장,직영,경기도 동두천시 강변로 872,경기도 동두천시 동두천동 432-1,37.94229789,127.0563814,7887,2005-12,3,종이+유리병+비닐+고철 등,경기도 동두천시청,031-860-2252,박형덕,09:00,18:00,00:00,00:00,토+일+공휴일,,,031-860-2252,경기도 동두천시청 환경보호과,2025-11-04,3920000,경기도 동두천시
옥천군 생활자원회수센터,직영,충청북도 옥천군 군북면 이평1길 199,충청북도 옥천군 군북면 추소리 1,36.34698788,127.5781691,1331,2019-12,3,세탁기+냉장고+고철 등,충청북도 옥천군청,043-730-3457,,09:00,18:00,00:00,00:00,,,,043-730-3457,충청북도 옥천군청,2025-11-17,4430000,충청북도 옥천군
청주시재활용센터,위탁,충청북도 청주시 청원구 내수로 28(주성동),충청북도 청주시 청원구 주성동 297-19,36.68256185,127.4990738,594,2020-09,3,중고가구+가전+기타잡화,㈜청주재활용센터,043-285-7289,박흥규,08:30,17:30,00:00,00:00,일요일+공휴일(토요일운영_08:30~15:00),,https://www.cj-rcmarket.co.kr,043-201-4675,충청북도 청주시청,2025-11-12,5710000,충청북도 청주시
은평구 재활용센터,위탁,서울특별시 은평구 수색로24길 16,서울특별시 은평구 수색동 293-13,37.59131729,126.884255711,497,1995-01,2,"가구류,가전제품",사단법인 한국생활자원 재활용 협회 은평구지회,02-372-8272,김명종,09:00,18:00,00:00,00:00,"명절전일 및 당일 휴무,일요일",구입일로부터 6개월,http://www.eprecycle.kr/,02-372-8272,서울특별시 은평구청,2025-06-26,3110000,서울특별시 은평구
김제시 재활용선별장,직영,전북특별자치도 김제시 봉황공단1길 200,전북특별자치도 김제시 오정동 222,35.77218743,126.919438,9939,2005-03,3,플라스틱류+병류+스티로폼+고철우유팩,전북특별자치도 김제시청 청소자원과,063-540-3173,정성주,08:00,17:00,00:00,00:00,일+공휴일,해당없음,www.gimje.go.kr,063-540-3173,전북특별자치도 김제시청,2025-06-10,4711000,전북특별자치도 김제시
환경자원센터,위탁,강원특별자치도 양양군 양양읍 되넘이길 80,강원특별자치도 양양군 양양읍 화일리 485,38.093757,128.571566,1257,2009-08,3,재활용품 선별,(유)양양자활환경자원센터,033-671-2788,임무경,09:00,18:00,00:00,00:00,토+일+공휴일,,,033-670-2186,강원특별자치도 양양군청,2024-11-26,4351000,강원특별자치도 양양군
용인시 재활용센터(이동),위탁,경기도 용인시 백옥대로 489번길 19-6 (이동읍),경기도 용인시 덕성리 1130-7,37.181318,127.200127,8233,2013-07,1,스티로폼+건전지+폐메트리스,용인도시공사,031-321-3088,신경철,08:00,18:00,08:00,12:00,일요일+공휴일,없음,없음,031-6193-2334,경기도 용인시청,2024-11-19,4050000,경기도 용인시
용인시 재활용센터(고림),위탁,경기도 용인시 처인구 경안천로 288(고림동),경기도 용인시 처인구 고림동 820-155,37.2565592940,127.2198451164,15569,2007-08,3,잡파지+철캔+알루미늄캔+유리병류+플라스틱류,용인도시공사,031-8097-6802,신경철,08:00,18:00,08:00,12:00,일요일+공휴일,없음,없음,031-6193-2334,경기도 용인시청,2024-11-19,4050000,경기도 용인시
완주군생활자원화센터,직영,전북특별자치도 완주군 비봉면 율백로 194-38,전북특별자치도 완주군 비봉면 백도리 419,35.98710823,127.1700744,4561,1997-10,9,재활용품,전북특별자치도 완주군청,063-290-4290,완주군수,09:00,18:00,00:00,00:00,공휴일,해당없음,wanju.go.kr,063-290-4290,전북특별자치도 완주군청,2024-01-29,4721000,전북특별자치도 완주군
종합리싸이클링타운,위탁,전북특별자치도 전주시 완산구 삼산길 51-24,전북특별자치도 전주시 완산구 삼천동3가 749-5,35.79982581,127.0736932,44160,2016-11,0,플라스틱류+고철+캔+유리병+비닐류 등,전주리싸이클링에너지㈜,063-250-8137,박상규,08:00,17:00,08:00,17:00,토(격주)+일+설 연휴+추석 연휴,,,063-281-8452,전북특별자치도 전주시청,2025-02-05,4641000,전북특별자치도 전주시
리싸이클세상,위탁,서울특별시 강남구 논현로 115길 7,서울특별시 강남구 논현동 191-6,37.50883463,127.0325018,781,2008-09,3,가전가구류,(주)리싸이클세상,,,09:00,19:00,09:00,19:00,,,,02-3423-6008,서울특별시 강남구청,2024-05-03,3220000,서울특별시 강남구
강남구재활용센터,위탁,서울특별시 강남구 개포로 247,서울특별시 강남구 개포동 1259-6,37.479138,127.0494793,660,2008-09,4,가전가구류,강남구재활용센터,,,09:00,19:00,09:00,19:00,,,,02-3423-6008,서울특별시 강남구청,2024-05-03,3220000,서울특별시 강남구
영천시 생활자원회수센터,직영,경상북도 영천시 바깥완산길 433 (완산동),경상북도 영천시 완산동 산3-1,35.96461799,128.9694261,940,2022-08,3,PET+플라스틱+고철+유리병+종이 등,경상북도 영천시청,054-330-6174,최기문,09:00,18:00,00:00,00:00,토요일+일요일+공휴일,,,054-330-6174,경상북도 영천시청,2024-10-14,5100000,경상북도 영천시
동구 재활용선별장,직영,,부산광역시 동구 범일동 1642,35.12989024,129.0612769,2300,1995-01,16,스티로폼,동구 재활용선별장,,김진홍,07:00,16:00,07:00,09:00,일요일,,,051-440-4451,부산광역시 동구청,2024-09-25,3270000,부산광역시 동구
부산진구 재활용센터,위탁,부산광역시 부산진구 신천대로 155(부전동),부산광역시 부산진구 부전동 384-65,35.15563315,129.0507411,145,1995-02,0,중고가구+잡화 등,부산광역시 부산진구청,051-805-8272,,09:00,18:00,00:00,00:00,토일+공휴일,,,051-605-4451,부산광역시 부산진구청,2024-07-11,3290000,부산광역시 부산진구
공공재활용 선별장,직영,전라남도 화순군 한천면 덕음로 548,전라남도 화순군 한천면 가암리 산 91,35.02069463,126.9907566,750,2009-01,1,종이+고철+빈병+스티로폼 등,전라남도 화순군청,061-379-3603,구복규,08:00,16:00,00:00,00:00,토요일+공휴일,,,061-379-3603,전라남도 화순군청,2024-08-13,5855000,전남광주통합특별시 화순군
함평군환경관리센터,직영,전라남도 함평군 함평읍 주포로 170-9,전라남도 함평군 함평읍 장년리 581,35.09101753,126.4804107,25368,2000-03,16,생활쓰레기,함평군,061-320-2878,,06:00,17:00,00:00,00:00,공휴일,,,061-320-2878,전라남도 함평군청,2025-10-31,5885000,전남광주통합특별시 함평군
경상북도 칠곡군 환경종합센터,직영,경상북도 칠곡군 왜관읍 강변대로 888,,35.9567806,128.3993445,450,2021-12,4,파지+ 압축PET+ 잡병+ 프라스틱 등,경상북도 칠곡군청,054-979-6745,김재욱,09:00,18:00,00:00,00:00,,,,054-979-6745,경상북도 칠곡군청,2025-11-03,5220053,경상북도 칠곡군 주민생활지원과
대립매립장 광역재활용품선별시설,직영,전북특별자치도 남원시 대산면 노산하대길 134,전북특별자치도 남원시 대산면 대곡리 311,35.41405716,127.3184414,1756.19,2024-12,8,고철+파지 등 재활용품 선별,전북특별자치도 남원시,063-620-6771,,09:00,18:00,00:00,00:00,토요일+일요일+공휴일,,,063-620-6771,전북특별자치도 남원시청,2025-11-03,4701000,전북특별자치도 남원시
홍성군 생활폐기물종합처리장,직영,충청남도 홍성군 홍북읍 홍덕서로328,충청남도 홍성군 홍북읍 중계리525,36.62185818,126.6265759,135188,2007-08,7,플라스틱 외 6품목,충청남도 홍성군청,041-630-9831,이용록,09:00,17:00,09:00,13:00,일,,www.hongseong.go.kr,041-630-9831,충청남도 홍성군청,2025-11-03,4600000,충청남도 홍성군
중구재활용센터,위탁,서울특별시 중구 다산로 174,서울특별시 중구 신당동 330-17,37.55897769,127.0134049,390,1997-12,2,가전+가구+컴퓨터+사무집기,서울특별시 중구청,02-2233-7289,김길성,09:00,19:00,09:00,18:00,일요일,"[환불교환] 판매일로부터 1개월 이내 고장 발생 / [무상수리] 판매일로부터 3개월 이내(컴퓨터, 프린터, 파쇄기 등 사무용 기기), 판매일로부터 6개월 이내(냉장고, TV, 에어컨 등 가정용 가전)",www.remarketc.co.kr,02-3396-5465,㈜중구리싸이클링,2025-09-25,3010000,서울특별시 중구
정선군재활용선별시설,직영,강원특별자치도 정선군 남면 광락로 691-233,강원특별자치도 정선군 남면 광덕리 365,37.30727229,128.6787899,1736,2016-01,1,플라스틱+캔+고철+목재,강원특별자치도 정선군청,033-560-2398,정선군수 최승준,09:00,18:00,00:00,00:00,토+일,,,033-560-2398,강원특별자치도 정선군청,2025-08-04,4291000,강원특별자치도 정선군
의정부시재활용센터,위탁,경기도 의정부시 장곡로 450(신곡동),경기도 의정부시 신곡동 681,37.74351676,127.0551989,478.5,1998-12,1,가전+가구 등,(사)한국생활자원재활용협회 의정부지회,031-844-7282,이종철,09:00,18:00,00:00,00:00,토+일+공휴일,판매 또는 교환물품이 6개월이내에 하자 발생시 무상수리,,031-828-2994,경기도 의정부시청,2025-06-30,3820000,경기도 의정부시
영덕군재활용선별장,직영,경상북도 영덕군 강구면 하저길 139-1,경상북도 영덕군 강구면 하저리 산103,36.41219352,129.3893647,600,2009-06,4,종이류외 9종,경상북도 영덕군청,054-730-6204,,07:00,16:00,07:00,16:00,토요일+일요일,,,054-730-6204,경상북도 영덕군청,2025-08-01,5180000,경상북도 영덕군
청도환경관리센터,직영,경상북도 청도군 매전면 중앙로 84-460,경상북도 청도군 매전면 송원리 산194-1,35.63481547,128.7778428,700,2002-12,9,종이+신문지류+캔류+플라스틱류+PET류+유리병류+고철류+스치로폼류 등,경상북도 청도군청,054-370-6192,김하수,09:00,18:00,10:00,18:00,격주 토+격주 일,,,054-370-6192,경상북도 청도군청,2025-08-11,5190000,경상북도 청도군
성동구 재활용센터,위탁,서울특별시 성동구 천호대로 78길 58,서울특별시 성동구 용답동 189,37.55691625,127.054969,72,1995-06,1,전자레인지+전기오븐+전기그릴+공기청정기,성동구 도시관리공단,02-2204-7997,장기천,09:00,18:00,00:00,00:00,토+일+공휴일,,,02-2286-5545,서울특별시 성동구청,2025-08-12,3030000,서울특별시 성동구
부여군 공공재활용기반시설,위탁,충청남도 부여군 장암면 북고로 201,충청남도 부여군 장암면 북고리 551-1,36.23213261,126.9163324,2762.69,2013-12,5,PET+PE+PP+PS+EPS인고트+유리병+폐지+우유팩+철캔 등,엠엔테크㈜,041-837-6470,오명석,09:00,18:00,00:00,00:00,매주토요일+일요일+공휴일,,,041-830-2315,충청남도 부여군청,2025-08-01,4570000,충청남도 부여군
양주시재활용선별장,위탁,경기도 양주시 은현면 은남로 160,경기도 양주시 은현면 봉암리 39,37.89328531,127.0100091,44134,2010-12,2,파지+고철+플라스틱 등,양주도시공사,031-828-9752,이흥규,09:00,18:00,09:00,18:00,토요일+일요일,,https://www.yjuc.or.kr/main/index.asp,031-8082-6931,경기도 양주시청 청소행정과,2025-07-31,5590000,경기도 양주시
구로구 재활용센터,위탁,서울특별시 구로구 새말로48,서울특별시 구로구 구로동 557-11,37.503211,126.886038,792,1995-01,2,가전제품+가구,구로재활용센터,02-858-8272,윤욱렬.김영순,09:30,18:30,11:00,18:30,일,판매일로부터 6개월이내 무상 수리,www.gurogu.co.kr,02-860-2620,서울특별시 구로구청,2025-08-14,3160000,서울특별시 구로구
성남시 재활용선별장,위탁,경기도 성남시 분당구 탄천로 247,경기도 성남시 분당구 야탑동 404,37.41426314,127.1196311,11049,1998-12,5,파지+공병+파병+고철+폐비닐+플라스틱+스티로폼+헌옷+기타,엠엔테크㈜+ ㈜에스지자원개발,031-707-6470,최기호,08:00,17:00,00:00,00:00,일+공휴일,,,031-729-4986,경기도 성남시청,2025-08-29,3780000,경기도 성남시
여수시 재활용품선별장,직영,전라남도 여수시 진달래길 310-157(월내동),전라남도 여수시 월내동 200-5,34.84759436,127.7386021,1749.1,2011-01,0,폐지+고철+철캔+알루미늄캔+유리병+잡병+페트병+플라스틱류+스티로폼,전라남도 여수시,061-659-3839,정기명,09:00,18:00,00:00,00:00,"토, 일, 공휴일",해당없음,해당없음,061-659-3839,전라남도 여수시청,2024-03-20,5785000,전남광주통합특별시 여수시
영동군자원순환센터,직영,충청북도 영동군 용산면 남부로 621-39,,36.22144517,127.8018119,1187,2010-01,2,폐지+우유팩+고철+알미늄캔+철캔+플라스틱+병류+장판+스티로품,충청북도 영동군,043-740-3418,정영철,09:00,18:00,00:00,00:00,,,,043-740-3418,충청북도 영동군청,2023-12-11,4440000,충청북도 영동군
광양시 재활용품 선별시설,위탁,전라남도 광양시 광양읍 직동2길 113,전라남도 광양시 광양읍 죽림리 1445,34.95596761,127.6458542,4984,1997-03,2,폐금속류+폐페트 및 장판+폐합성수지+폐발포합성수지+폐지류+유리병류 등,(사)광양자원관리공사,061-762-0388,강경주,08:00,17:00,00:00,00:00,일요일+명절 당일+명절 익일+근로자의 날,,,061-797-3612,전라남도 광양시청,2025-11-28,4840000,전라남도 광양시
보성군 생활자원회수센터,직영,전라남도 보성군 보성읍 평동로 1656,전라남도 보성군 보성읍 용문리 608,34.78248754,127.0870977,198,2021-12,4,플라스틱류+병류+스티로폼류+고철류 등,전라남도 보성군,061-850-8497,김철우,09:00,18:00,00:00,00:00,법정 공휴일,,,061-850-5344,전라남도 보성군청 환경생태과,2025-12-01,5850000,전남광주통합특별시 보성군
(합자)청명산업,위탁,강원특별자치도 춘천시 동면 소양강로 242,강원특별자치도 춘천시 동면 장학리 648-56,37.908602,127.749173,153,2024-12,1,중고가전가구제품,청명산업,033-257-4428,김영숙,09:00,18:00,00:00,00:00,토+일+법정공휴일,,,033-250-3131,강원특별자치도 춘천시청,2025-11-25,4181000,강원특별자치도 춘천시
보령시 공공재활용 기반시설,위탁,충청남도 보령시 해안로 543,충청남도 보령시 남곡동 1145-8,36.33837746,126.5394913,736,2022-12,1,플라스틱류+ 스티로폼+캔,삼원환경산업㈜,041-931-1420,남궁훈,09:00,18:00,00:00,00:00,일+공휴일,재활용품 선별,,041-930-3680,충청남도 보령시청,2025-12-05,4510000,충청남도 보령시
강진군 환경정화센터,직영,전라남도 강진군 강진읍 남당로 97-73,전라남도 강진군 강진읍 목리 437,34.62354375,126.7765415,124491,2024-07,12,각종생활쓰레기,전라남도 강진군청,061-430-3967,,08:00,17:00,00:00,00:00,토요일+일요일+공휴일,,https://www.gangjin.go.kr/www/part/environment/waste/status,061-430-3967,전라남도 강진군청,2025-12-08,5865000,전남광주통합특별시 강진군
강릉시자원순환센터,직영,강원특별자치도 강릉시 강동면 임곡로 557-13,강원특별자치도 강릉시 강동면 임곡리 산 15,37.69266797,128.9879447,2085.45,2020-12,5,페트병+고철+공병+프라스틱+폐지+알루미늄캔+파병+잡병,강원특별자치도 강릉시청,033-660-3391,,08:00,17:00,00:00,00:00,일+공휴일,,,033-660-3391,강원특별자치도 강릉시청,2025-12-05,4201000,강원특별자치도 강릉시
예천군생활자원회수센터,직영,경상북도 예천군 예천읍 원고개길 57-25,경상북도 예천군 예천읍 청복리 645,36.63781764,128.4616533,812,2016-12,23,"병,캔,플라스틱,폐지류 등",경상북도 예천군,054-650-6173,김학동,09:00,17:00,00:00,00:00,토+일,,,054-650-6173,경상북도 예천군청,2025-12-10,5230000,경상북도 예천군
서천군재활용처리시설,직영,충청남도 서천군 서천읍 충절로41번길 23 (군사리),충청남도 서천군 서천읍 군사리 692-3,36.077383,126.687346,97.65,2016-12,0,의류 판매 및 수선+책+우유팩 화장지 교환 등,충청남도 서천군,041-950-4336,김기웅,09:00,18:00,00:00,00:00,토+일+공휴일,,,041-950-4395,충청남도 서천군청,2025-12-12,4580000,충청남도 서천군
태백시 생활자원회수센터,직영,"강원특별자치도 태백시 용정길 307(통동,위생매립지)",강원특별자치도 태백시 통동 336-1,37.1976912,129.003658,797.8,2001-01,1,종이+플라스틱+공병+고철+캔+장판 등,강원특별자치도 태백시청,033-550-2790,이상호,06:00,15:00,06:00,12:00,일+추석당일+설당일,,,033-550-2790,강원특별자치도 태백시청,2023-12-06,4221000,강원특별자치도 태백시
공주시 재활용센터,위탁,충청남도 공주시 봉황로 125,충청남도 공주시 교동 120,36.45749955,127.1209671,30,2022-02,0,재활용품,금호자원,041-852-1006,안소연,09:00,18:00,00:00,00:00,토요일+일요일+공휴일,,,041-840-8573,공주시청,2022-11-22,4500000,충청남도 공주시
함양군폐기물종합처리장,직영,경상남도 함양군 함양읍 함양남서로 996-166,경상남도 함양군 함양읍 이은리 34,35.5046669870,127.7538238326,1470,2012-03,2,폐생활가전,경상남도 함양군청,055-960-6150,진병영,09:00,18:00,00:00,00:00,토+일+공휴일,,www.hygn.go.kr,055-960-6150,경상남도 함양군청,2024-10-10,5460000,경상남도 함양군
부산광역시 자원재활용센타,위탁,부산광역시 강서구 생곡산단로 76,부산광역시 강서구 생곡동 421,35.13302253,128.8786624,1111,2013-12,29,폐합성수지류+폐폴리염화비닐수지류 둥,부산광역시 자원재활용센타,051-971-2010,박희라,00:00,23:59,00:00,00:00,토+일+공휴일,,,051-970-2342,부산광역시 강서구청,2025-09-01,3360000,부산광역시 강서구
수영구재활용센터,위탁,부산광역시 수영구 수영로741번길 12(수영동),,35.16840640,129.12073170,33,1998-05,1,중고가전,수영구재활용센터,051-756-0599,,09:00,18:00,00:00,00:00,매주일요일+공휴일,,,051-610-4451,부산광역시 수영구,2025-09-01,3380000,부산광역시 수영구
수영종합재활용센터,위탁,부산광역시 수영구 연수로 365(수영동),,35.17085857,129.11031800,132,2011-11,1,중고가전,수영종합재활용센터,051-753-4979,,09:00,19:00,00:00,00:00,매주일요일+공휴일,,,051-610-4451,부산광역시 수영구,2025-09-01,3380000,부산광역시 수영구
부전식당용 중고마트,위탁,부산광역시 수영구 연수로 272(망미동),,35.17283050,129.10039370,66,2023-01,1,주방용품,부전식당용 중고마트,051-755-3250,,09:00,18:00,00:00,00:00,매주일요일+공휴일,,,051-610-4451,부산광역시 수영구,2025-09-01,3380000,부산광역시 수영구
신수영재활용마트,위탁,부산광역시 수영구 연수로392번길 18(광안동),,35.16864148,129.11161150,198,2021-01,1,가전 가구,신수영재활용마트,051-753-8270,,09:00,18:00,00:00,00:00,매주일요일+공휴일,,,051-610-4451,부산광역시 수영구,2025-09-01,3380000,부산광역시 수영구
용우재활용센터,위탁,부산광역시 수영구 광안로7번길 42(광안동),,35.15902805,129.11491380,150,2021-01,1,업소냉장고 온풍기,용우재활용센터,051-752-2781,,09:00,20:00,00:00,00:00,매주일요일+공휴일,,,051-610-4451,부산광역시 수영구,2025-09-01,3380000,부산광역시 수영구
영월군 재활용센터,직영,강원특별자치도 영월군 북면 영월로 1339-43,강원특별자치도 영월군 북면 문곡리 541,37.2187172,128.4313738,350,2005-12,3,플라스틱+종이+스티로폼+유리병+캔,영월군 재활용센터,033-370-2362,최명서,08:00,17:00,00:00,00:00,공휴일,판매일로부터 6개월 이내 무상수리,yw.go.kr,033-370-2362,강원특별자치도 영월군청,2025-09-03,4271000,강원특별자치도 영월군
서대문구재활용센터,위탁,서울특별시 서대문구 연희로 292,서울특별시 서대문구 홍은동 425,37.58323052,126.9363911,1171.77,1995-01,7,가전제품+가구 등,(주)서대문구 재활용센터,02-394-8272,조봉현,09:30,18:30,00:00,00:00,공휴일,공휴일 제외 AS 가능,www.sdm.go.kr,02-330-1377,서울특별시 서대문구청 청소행정과,2025-07-31,3120000,서울특별시 서대문구
진도군재활용선별시설,직영,전라남도 진도군 군내면 한의길 115,,34.53069593,126.2622759,800,2006-01,5,종이+고철+철캔+페트 등,진도군재활용선별시설,061-540-3781,김희수,09:00,18:00,00:00,00:00,토+일+공휴일,,,061-540-3781,전라남도 진도군청,2025-08-29,5905000,전남광주통합특별시 진도군
창원시 재활용센터,위탁,경상남도 창원시 진해구 동진로 44(석동),경상남도 창원시 진해구 석동 84-1,35.1525172,128.700497,1461.86,1996-12,1,가구+냉장고+TV 등,진해지역자활센터,055-544-4980,김미숙,09:00,18:00,00:00,00:00,토요일+일요일+ 공휴일,판매일로부터 7일,http://thedrim.or.kr/sub03-1/,055-225-3584,경상남도 창원시청,2025-08-22,5670000,경상남도 창원시
목포시 재활용선별센터,직영,전라남도 목포시 대양로 241-55,전라남도 목포시 대양동 산109-3,34.8279812539,126.4080436001,1400,2006-10,4,페트+혼합플라스틱+철캔+고철+폐지+알캔+플라스틱+병류+스티로폼 등,전라남도 목포시청,061-270-8076,,05:00,17:00,05:00,17:00,매주 일요일,,,061-270-8076,전라남도 목포시청,2025-04-23,5780000,전남광주통합특별시 목포시
서산시 재활용 센터(녹색가게),위탁,"충청남도 서산시 시장1로 4-4, 2층","충청남도 서산시 동문동 903-6, 2층",36.78176269,126.4552843,199,1993-12,1,중고 의류+재활용 장난감+도서+잡화 등,서산 YMCA,041-664-0848,이완호,10:00,16:00,00:00,00:00,토+일+공휴일,,,041-660-2682,충청남도 서산시청,2025-04-30,4530000,충청남도 서산시